DATE,TIME,BOROUGH,ZIP CODE,LATITUDE,LONGITUDE,LOCATION,ON STREET NAME,CROSS STREET NAME,OFF STREET NAME,NUMBER OF PERSONS INJURED,NUMBER OF PERSONS KILLED,NUMBER OF PEDESTRIANS INJURED,NUMBER OF PEDESTRIANS KILLED,NUMBER OF CYCLIST INJURED,NUMBER OF CYCLIST KILLED,NUMBER OF MOTORIST INJURED,NUMBER OF MOTORIST KILLED,CONTRIBUTING FACTOR VEHICLE 1,CONTRIBUTING FACTOR VEHICLE 2,CONTRIBUTING FACTOR VEHICLE 3,CONTRIBUTING FACTOR VEHICLE 4,CONTRIBUTING FACTOR VEHICLE 5,UNIQUE KEY,VEHICLE TYPE CODE 1,VEHICLE TYPE CODE 2,VEHICLE TYPE CODE 3,VEHICLE TYPE CODE 4,VEHICLE TYPE CODE 5
01/10/2013,15:50,STATEN ISLAND,10304,40.62387,-74.079219,"(40.62387, -74.079219)",TOMPKINS AVENUE                 ,TOMPKINS STREET                 ,,0,0,0,0,0,0,0,0,Unspecified,Unspecified,,,,286782,SPORT UTILITY / STATION WAGON,PASSENGER VEHICLE,,,
01/16/2013,13:55,STATEN ISLAND,10304,40.614026,-74.084783,"(40.614026, -74.084783)",SOBEL COURT                     ,TARGEE STREET                   ,,0,0,0,0,0,0,0,0,Unspecified,Unspecified,,,,286845,PASSENGER VEHICLE,PASSENGER VEHICLE,,,
01/17/2013,18:21,STATEN ISLAND,10304,40.617705,-74.09407,"(40.617705, -74.09407)",HOWARD AVENUE                   ,HILLSIDE AVENUE                 ,,0,0,0,0,0,0,0,0,Unspecified,Unspecified,,,,286851,PASSENGER VEHICLE,PASSENGER VEHICLE,,,
02/06/2013,16:30,STATEN ISLAND,10301,40.645522,-74.07767,"(40.645522, -74.07767)",RICHMOND TERRACE                ,HAMILTON AVENUE                 ,,1,0,0,0,0,0,1,0,Unspecified,Unspecified,,,,287049,PASSENGER VEHICLE,SPORT UTILITY / STATION WAGON,,,
02/08/2013,20:40,STATEN ISLAND,10310,40.632092,-74.121684,"(40.632092, -74.121684)",CARY AVENUE                     ,ROE STREET                      ,,0,0,0,0,0,0,0,0,Pavement Slippery,Pavement Slippery,Unspecified,,,287092,SPORT UTILITY / STATION WAGON,SPORT UTILITY / STATION WAGON,SPORT UTILITY / STATION WAGON,,
02/20/2013,10:15,STATEN ISLAND,10310,40.632092,-74.121684,"(40.632092, -74.121684)",ROE STREET                      ,CARY AVENUE                     ,,0,0,0,0,0,0,0,0,Unspecified,,,,,287218,PASSENGER VEHICLE,,,,
02/25/2013,13:10,STATEN ISLAND,10310,40.644056,-74.108492,"(40.644056, -74.108492)",BARD AVENUE                     ,DELAFIELD PLACE                 ,,0,0,0,0,0,0,0,0,Unspecified,Unspecified,,,,287270,OTHER,PASSENGER VEHICLE,,,
02/27/2013,11:25,STATEN ISLAND,10310,40.632092,-74.121684,"(40.632092, -74.121684)",CARY AVENUE                     ,ROE STREET                      ,,0,0,0,0,0,0,0,0,Unspecified,Unspecified,,,,287289,PASSENGER VEHICLE,SPORT UTILITY / STATION WAGON,,,
02/28/2013,16:19,STATEN ISLAND,10301,40.645522,-74.07767,"(40.645522, -74.07767)",RICHMOND TERRACE                ,HAMILTON AVENUE                 ,,0,0,0,0,0,0,0,0,Unspecified,Unspecified,,,,287301,PASSENGER VEHICLE,PASSENGER VEHICLE,,,
03/09/2013,6:20,STATEN ISLAND,10304,40.617705,-74.09407,"(40.617705, -74.09407)",HOWARD AVENUE                   ,HILLSIDE AVENUE                 ,,0,0,0,0,0,0,0,0,Unspecified,,,,,287406,SPORT UTILITY / STATION WAGON,,,,
03/10/2013,11:20,STATEN ISLAND,10314,40.611739,-74.138917,"(40.611739, -74.138917)",,,P/L 2270 VICTORY BLVD                   ,0,0,0,0,0,0,0,0,Unspecified,Unspecified,,,,287435,SPORT UTILITY / STATION WAGON,SPORT UTILITY / STATION WAGON,,,
03/08/2013,6:20,STATEN ISLAND,10304,40.617705,-74.09407,"(40.617705, -74.09407)",HILLSIDE AVENUE                 ,HOWARD AVENUE                   ,,0,0,0,0,0,0,0,0,Unspecified,,,,,287455,PASSENGER VEHICLE,,,,
04/02/2013,20:55,STATEN ISLAND,10304,40.617705,-74.09407,"(40.617705, -74.09407)",HOWARD AVENUE                   ,HILLSIDE AVENUE                 ,,1,0,0,0,0,0,1,0,Unspecified,Unspecified,,,,287670,PASSENGER VEHICLE,UNKNOWN,,,
05/04/2013,22:00,STATEN ISLAND,10304,40.617705,-74.09407,"(40.617705, -74.09407)",HILLSIDE AVENUE                 ,HOWARD AVENUE                   ,,0,0,0,0,0,0,0,0,Unspecified,,,,,288040,PASSENGER VEHICLE,,,,
05/05/2013,17:20,STATEN ISLAND,10304,40.614026,-74.084783,"(40.614026, -74.084783)",TARGEE STREET                   ,SOBEL COURT                     ,,0,0,0,0,0,0,0,0,Unspecified,Unspecified,,,,288043,PASSENGER VEHICLE,PASSENGER VEHICLE,,,
05/14/2013,9:00,STATEN ISLAND,10304,40.62387,-74.079219,"(40.62387, -74.079219)",TOMPKINS AVENUE                 ,TOMPKINS STREET                 ,,0,0,0,0,0,0,0,0,Driver Inattention/Distraction,Unspecified,,,,288134,PASSENGER VEHICLE,SPORT UTILITY / STATION WAGON,,,
05/13/2013,7:50,STATEN ISLAND,10301,40.645522,-74.07767,"(40.645522, -74.07767)",RICHMOND TERRACE                ,HAMILTON AVENUE                 ,,0,0,0,0,0,0,0,0,Unspecified,Unspecified,,,,288136,SPORT UTILITY / STATION WAGON,SPORT UTILITY / STATION WAGON,,,
05/19/2013,11:40,STATEN ISLAND,10304,40.617705,-74.09407,"(40.617705, -74.09407)",HOWARD AVENUE                   ,HILLSIDE AVENUE                 ,,0,0,0,0,0,0,0,0,Unspecified,,,,,288181,PASSENGER VEHICLE,,,,
05/23/2013,8:30,STATEN ISLAND,10304,40.62387,-74.079219,"(40.62387, -74.079219)",TOMPKINS STREET                 ,TOMPKINS AVENUE                 ,,0,0,0,0,0,0,0,0,Unspecified,Unspecified,,,,288241,PASSENGER VEHICLE,UNKNOWN,,,
06/08/2013,10:55,STATEN ISLAND,10304,40.614026,-74.084783,"(40.614026, -74.084783)",TARGEE STREET                   ,SOBEL COURT                     ,,0,0,0,0,0,0,0,0,Unspecified,Unspecified,,,,288451,PICK-UP TRUCK,PASSENGER VEHICLE,,,
06/29/2013,9:55,STATEN ISLAND,10314,40.617766,-74.139441,"(40.617766, -74.139441)",WOOLLEY AVENUE                  ,WATERS AVENUE                   ,,0,0,0,0,0,0,0,0,Unspecified,Unspecified,,,,288734,PASSENGER VEHICLE,UNKNOWN,,,
09/23/2013,12:40,STATEN ISLAND,10304,40.62387,-74.079219,"(40.62387, -74.079219)",TOMPKINS AVENUE                 ,TOMPKINS STREET                 ,,1,0,0,0,0,0,1,0,Unspecified,Unspecified,,,,289332,PASSENGER VEHICLE,PASSENGER VEHICLE,,,
09/29/2013,23:32,STATEN ISLAND,10304,40.617705,-74.09407,"(40.617705, -74.09407)",HILLSIDE AVENUE                 ,HOWARD AVENUE                   ,,0,0,0,0,0,0,0,0,Unspecified,,,,,289399,SPORT UTILITY / STATION WAGON,,,,
10/08/2013,19:38,STATEN ISLAND,10310,40.632092,-74.121684,"(40.632092, -74.121684)",CARY AVENUE                     ,ROE STREET                      ,,0,0,0,0,0,0,0,0,Unspecified,Unspecified,,,,289462,PASSENGER VEHICLE,PASSENGER VEHICLE,,,
10/27/2013,10:45,STATEN ISLAND,10304,40.62387,-74.079219,"(40.62387, -74.079219)",TOMPKINS STREET                 ,TOMPKINS AVENUE                 ,,0,0,0,0,0,0,0,0,Unspecified,Unspecified,,,,289597,PASSENGER VEHICLE,UNKNOWN,,,
11/09/2013,14:40,STATEN ISLAND,10301,40.645522,-74.07767,"(40.645522, -74.07767)",RICHMOND TERRACE                ,HAMILTON AVENUE                 ,,0,0,0,0,0,0,0,0,Unspecified,Unspecified,,,,289729,PASSENGER VEHICLE,PASSENGER VEHICLE,,,
12/01/2013,1:48,STATEN ISLAND,10304,40.617705,-74.09407,"(40.617705, -74.09407)",HOWARD AVENUE                   ,HILLSIDE AVENUE                 ,,1,0,0,0,0,0,1,0,Unspecified,,,,,289874,PASSENGER VEHICLE,,,,
12/17/2013,11:45,STATEN ISLAND,10304,40.617705,-74.09407,"(40.617705, -74.09407)",HILLSIDE AVENUE                 ,HOWARD AVENUE                   ,,1,0,0,0,0,0,1,0,Unspecified,,,,,290010,SPORT UTILITY / STATION WAGON,,,,
12/21/2013,14:15,STATEN ISLAND,10310,40.632092,-74.121684,"(40.632092, -74.121684)",CARY AVENUE                     ,ROE STREET                      ,,0,0,0,0,0,0,0,0,Unspecified,Unspecified,,,,290055,PASSENGER VEHICLE,PASSENGER VEHICLE,,,
12/21/2013,17:20,STATEN ISLAND,10304,40.617705,-74.09407,"(40.617705, -74.09407)",HOWARD AVENUE                   ,HILLSIDE AVENUE                 ,,0,0,0,0,0,0,0,0,Lost Consciousness,Unspecified,,,,290057,SPORT UTILITY / STATION WAGON,PASSENGER VEHICLE,,,
12/28/2013,10:30,STATEN ISLAND,10304,40.614026,-74.084783,"(40.614026, -74.084783)",SOBEL COURT                     ,TARGEE STREET                   ,,0,0,0,0,0,0,0,0,Unspecified,Unspecified,,,,290104,SPORT UTILITY / STATION WAGON,UNKNOWN,,,
01/14/2013,15:20,STATEN ISLAND,10314,40.618519,-74.16367,"(40.618519, -74.16367)",FAHY AVENUE                     ,LONGDALE STREET                 ,,0,0,0,0,0,0,0,0,Unspecified,Unspecified,,,,296121,PASSENGER VEHICLE,PASSENGER VEHICLE,,,
02/24/2013,13:10,STATEN ISLAND,10314,40.618519,-74.16367,"(40.618519, -74.16367)",FAHY AVENUE                     ,LONGDALE STREET                 ,,0,0,0,0,0,0,0,0,Unspecified,Unspecified,,,,296759,PASSENGER VEHICLE,PASSENGER VEHICLE,,,
04/05/2013,16:30,STATEN ISLAND,10306,40.572673,-74.107541,"(40.572673, -74.107541)",HYLAN BOULEVARD                 ,LOCUST AVENUE                   ,,0,0,0,0,0,0,0,0,Prescription Medication,Unspecified,,,,297369,PASSENGER VEHICLE,PASSENGER VEHICLE,,,
05/13/2013,15:00,STATEN ISLAND,10314,40.612747,-74.161538,"(40.612747, -74.161538)",RENEE PLACE                     ,HILLMAN AVENUE                  ,,0,0,0,0,0,0,0,0,Steering Failure,Unspecified,Unspecified,Unspecified,,297949,SPORT UTILITY / STATION WAGON,PASSENGER VEHICLE,PASSENGER VEHICLE,PASSENGER VEHICLE,
05/15/2013,6:35,STATEN ISLAND,10308,40.544029,-74.146476,"(40.544029, -74.146476)",TARLEE PLACE                    ,FLORENCE STREET                 ,,0,0,0,0,0,0,0,0,Unspecified,Unspecified,,,,297983,PASSENGER VEHICLE,UNKNOWN,,,
06/27/2013,19:45,STATEN ISLAND,10306,40.572673,-74.107541,"(40.572673, -74.107541)",HYLAN BOULEVARD                 ,LOCUST AVENUE                   ,,0,0,0,0,0,0,0,0,Fatigued/Drowsy,Unspecified,,,,298749,SPORT UTILITY / STATION WAGON,PASSENGER VEHICLE,,,
07/10/2013,11:30,STATEN ISLAND,10308,40.56255,-74.153524,"(40.56255, -74.153524)",MILES AVENUE                    ,FAIRFIELD STREET                ,,0,0,0,0,0,0,0,0,Driver Inattention/Distraction,Driver Inattention/Distraction,,,,298871,PASSENGER VEHICLE,OTHER,,,
08/16/2013,9:00,STATEN ISLAND,10304,40.596746,-74.093756,"(40.596746, -74.093756)",VISTA AVENUE                    ,RICHMOND ROAD                   ,,1,0,0,0,0,0,1,0,Driver Inattention/Distraction,Unspecified,Unspecified,,,299191,PASSENGER VEHICLE,PASSENGER VEHICLE,PASSENGER VEHICLE,,
09/10/2013,16:50,STATEN ISLAND,10306,40.572673,-74.107541,"(40.572673, -74.107541)",HYLAN BOULEVARD                 ,LOCUST AVENUE                   ,,0,0,0,0,0,0,0,0,Prescription Medication,Fatigued/Drowsy,,,,299388,OTHER,PASSENGER VEHICLE,,,
11/30/2013,14:10,STATEN ISLAND,10304,40.591859,-74.095301,"(40.591859, -74.095301)",DELAWARE AVENUE                 ,BEAR STREET                     ,,0,0,0,0,0,0,0,0,Driver Inexperience,Unspecified,,,,300248,SPORT UTILITY / STATION WAGON,SPORT UTILITY / STATION WAGON,,,
12/31/2013,14:00,STATEN ISLAND,10306,40.572673,-74.107541,"(40.572673, -74.107541)",HYLAN BOULEVARD                 ,LOCUST AVENUE                   ,,0,0,0,0,0,0,0,0,Unspecified,Unspecified,,,,300578,SPORT UTILITY / STATION WAGON,PICK-UP TRUCK,,,
02/05/2013,8:10,STATEN ISLAND,10307,40.510817,-74.241981,"(40.510817, -74.241981)",AMBOY ROAD                      ,WOOD AVENUE                     ,,0,0,0,0,0,0,0,0,Unspecified,Unspecified,Unspecified,,,302246,PASSENGER VEHICLE,PASSENGER VEHICLE,SPORT UTILITY / STATION WAGON,,
04/03/2013,8:06,STATEN ISLAND,10312,40.548586,-74.171782,"(40.548586, -74.171782)",POMPEY AVENUE                   ,MEMPHIS AVENUE                  ,,0,0,0,0,0,0,0,0,Unspecified,Unspecified,,,,302485,PASSENGER VEHICLE,UNKNOWN,,,
06/12/2013,20:29,STATEN ISLAND,10307,40.510817,-74.241981,"(40.510817, -74.241981)",AMBOY ROAD                      ,WOOD AVENUE                     ,,0,0,0,0,0,0,0,0,Unspecified,Unspecified,Unspecified,,,302836,OTHER,SPORT UTILITY / STATION WAGON,PASSENGER VEHICLE,,
06/12/2013,17:30,STATEN ISLAND,10307,40.510817,-74.241981,"(40.510817, -74.241981)",AMBOY ROAD                      ,WOOD AVENUE                     ,,0,0,0,0,0,0,0,0,Unspecified,Unspecified,,,,302839,PICK-UP TRUCK,OTHER,,,
06/16/2013,10:33,STATEN ISLAND,10307,40.506888,-74.238626,"(40.506888, -74.238626)",SPRAGUE AVENUE                  ,GEORGE STREET                   ,,0,0,0,0,0,0,0,0,Unspecified,Unspecified,,,,302856,PASSENGER VEHICLE,PASSENGER VEHICLE,,,
07/15/2013,21:52,STATEN ISLAND,10307,40.507016,-74.244319,"(40.507016, -74.244319)",BRIGHTON STREET                 ,PITTSVILLE AVENUE               ,,0,0,0,0,0,0,0,0,Unspecified,Unspecified,,,,303015,PASSENGER VEHICLE,PASSENGER VEHICLE,,,
07/17/2013,22:20,STATEN ISLAND,10312,40.543496,-74.202737,"(40.543496, -74.202737)",MARCY AVENUE                    ,VENUS PLACE                     ,,0,0,0,0,0,0,0,0,Unspecified,,,,,303022,PASSENGER VEHICLE,,,,
08/06/2013,17:45,STATEN ISLAND,10312,40.539486,-74.166862,"(40.539486, -74.166862)",WOODS OF ARDEN ROAD             ,OAKDALE STREET                  ,,1,0,0,0,0,0,1,0,Unspecified,Unspecified,,,,303108,PASSENGER VEHICLE,PASSENGER VEHICLE,,,
12/24/2013,21:50,STATEN ISLAND,10307,40.506888,-74.238626,"(40.506888, -74.238626)",SPRAGUE AVENUE                  ,GEORGE STREET                   ,,0,0,0,0,0,0,0,0,Unspecified,Unspecified,,,,303795,SPORT UTILITY / STATION WAGON,SPORT UTILITY / STATION WAGON,,,
01/01/2013,4:14,STATEN ISLAND,10302,40.6334979,-74.1335724,"(40.6334979, -74.1335724)",ALBION PLACE                    ,HEBERTON AVENUE                 ,,0,0,0,0,0,0,0,0,Unspecified,Unspecified,,,,286681,PASSENGER VEHICLE,UNKNOWN,,,
01/01/2013,10:45,STATEN ISLAND,10301,40.6387526,-74.0899741,"(40.6387526, -74.0899741)",CLYDE PLACE                     ,ARNOLD STREET                   ,,0,0,0,0,0,0,0,0,Unspecified,Unspecified,,,,286683,PASSENGER VEHICLE,UNKNOWN,,,
01/01/2013,13:45,STATEN ISLAND,10301,40.6455141,-74.0849635,"(40.6455141, -74.0849635)",HAMILTON AVENUE                 ,PHELPS PLACE                    ,,0,0,0,0,0,0,0,0,Unspecified,Unspecified,,,,286684,PASSENGER VEHICLE,UNKNOWN,,,
01/01/2013,13:22,STATEN ISLAND,10314,40.6130779,-74.122557,"(40.6130779, -74.122557)",MANOR ROAD                      ,VICTORY BOULEVARD               ,,0,0,0,0,0,0,0,0,Unspecified,Unspecified,,,,286685,PASSENGER VEHICLE,PASSENGER VEHICLE,,,
01/01/2013,18:13,STATEN ISLAND,10310,40.6263283,-74.1313101,"(40.6263283, -74.1313101)",FOREST AVENUE                   ,JEWETT AVENUE                   ,,0,0,0,0,0,0,0,0,Unspecified,Unspecified,,,,286687,PASSENGER VEHICLE,PASSENGER VEHICLE,,,
01/01/2013,18:35,STATEN ISLAND,10302,40.6308856,-74.1304761,"(40.6308856, -74.1304761)",POST AVENUE                     ,JEWETT AVENUE                   ,,0,0,0,0,0,0,0,0,Unspecified,Unspecified,,,,286688,PASSENGER VEHICLE,PASSENGER VEHICLE,,,
01/02/2013,7:00,STATEN ISLAND,10301,40.6110361,-74.0995027,"(40.6110361, -74.0995027)",LITTLE CLOVE ROAD               ,ONEIDA AVENUE                   ,,1,0,0,0,0,0,1,0,Unspecified,Unspecified,,,,286689,PASSENGER VEHICLE,PASSENGER VEHICLE,,,
01/02/2013,7:00,STATEN ISLAND,10301,40.6316482,-74.0876191,"(40.6316482, -74.0876191)",VICTORY BOULEVARD               ,WOODSTOCK AVENUE                ,,2,0,0,0,0,0,2,0,Unspecified,Unspecified,,,,286690,PASSENGER VEHICLE,SPORT UTILITY / STATION WAGON,,,
01/02/2013,7:13,STATEN ISLAND,10303,40.6402572,-74.1660258,"(40.6402572, -74.1660258)",RICHMOND TERRACE                ,SOUTH AVENUE                    ,,0,0,0,0,0,0,0,0,Unspecified,Unspecified,,,,286691,SPORT UTILITY / STATION WAGON,BUS,,,
01/02/2013,14:30,STATEN ISLAND,10302,40.6259569,-74.1344507,"(40.6259569, -74.1344507)",,,P/L 1351 FOREST AVENUE                  ,0,0,0,0,0,0,0,0,Unspecified,Unspecified,,,,286693,PASSENGER VEHICLE,SPORT UTILITY / STATION WAGON,,,
01/02/2013,8:51,STATEN ISLAND,10314,40.6118744,-74.1382294,"(40.6118744, -74.1382294)",VICTORY BOULEVARD               ,O'CONNOR AVENUE                 ,,0,0,0,0,0,0,0,0,Unspecified,Unspecified,,,,286694,PASSENGER VEHICLE,PASSENGER VEHICLE,,,
01/03/2013,9:40,STATEN ISLAND,10304,40.6260054,-74.0752445,"(40.6260054, -74.0752445)",THOMPSON STREET                 ,BAY STREET                      ,,0,0,0,0,0,0,0,0,Unspecified,Unspecified,,,,286696,PASSENGER VEHICLE,PASSENGER VEHICLE,,,
01/03/2013,7:50,STATEN ISLAND,10314,40.6114287,-74.1168345,"(40.6114287, -74.1168345)",SLOSSON AVENUE                  ,REON AVENUE                     ,,0,0,0,0,0,0,0,0,Unspecified,Unspecified,,,,286697,SMALL COM VEH(4 TIRES) ,SPORT UTILITY / STATION WAGON,,,
01/03/2013,9:25,STATEN ISLAND,10303,40.6229887,-74.1666853,"(40.6229887, -74.1666853)",,,D/W 526 LISK AVENUE                     ,0,0,0,0,0,0,0,0,Unspecified,Unspecified,,,,286698,SPORT UTILITY / STATION WAGON,UNKNOWN,,,
01/03/2013,8:20,STATEN ISLAND,10301,40.6383999,-74.0882369,"(40.6383999, -74.0882369)",VANTUYL STREET                  ,YORK AVENUE                     ,,0,0,0,0,0,0,0,0,Unspecified,Unspecified,,,,286699,PASSENGER VEHICLE,UNKNOWN,,,
01/03/2013,8:16,STATEN ISLAND,10305,40.60503,-74.0657385,"(40.60503, -74.0657385)",SCHOOL ROAD                     ,TOMPKINS AVENUE                 ,,0,0,0,0,0,0,0,0,Unspecified,Unspecified,,,,286700,SPORT UTILITY / STATION WAGON,SPORT UTILITY / STATION WAGON,,,
01/03/2013,10:00,STATEN ISLAND,10305,40.6070995,-74.0609903,"(40.6070995, -74.0609903)",BAY STREET                      ,SCHOOL ROAD                     ,,0,0,0,0,0,0,0,0,Unspecified,Unspecified,,,,286701,PASSENGER VEHICLE,PASSENGER VEHICLE,,,
01/03/2013,9:10,STATEN ISLAND,10301,40.6447928,-74.0802817,"(40.6447928, -74.0802817)",SAINT MARKS PLACE               ,HAMILTON AVENUE                 ,,0,0,0,0,0,0,0,0,Unspecified,Unspecified,,,,286702,SMALL COM VEH(4 TIRES) ,SMALL COM VEH(4 TIRES) ,,,
01/03/2013,21:45,STATEN ISLAND,10304,40.6094837,-74.0842478,"(40.6094837, -74.0842478)",HANOVER AVENUE                  ,STEUBEN STREET                  ,,1,0,0,0,0,0,1,0,Unspecified,Unspecified,,,,286703,PASSENGER VEHICLE,PASSENGER VEHICLE,,,
01/04/2013,0:30,STATEN ISLAND,10314,40.6130779,-74.122557,"(40.6130779, -74.122557)",VICTORY BOULEVARD               ,MANOR ROAD                      ,,1,0,0,0,0,0,1,0,Unspecified,Unspecified,,,,286704,LARGE COM VEH(6 OR MORE TIRES),PASSENGER VEHICLE,,,
01/04/2013,15:40,STATEN ISLAND,10301,40.6164151,-74.1035089,"(40.6164151, -74.1035089)",VICTORY BOULEVARD               ,CLOVE ROAD                      ,,0,0,0,0,0,0,0,0,Unspecified,Unspecified,,,,286705,PASSENGER VEHICLE,PASSENGER VEHICLE,,,
01/04/2013,18:30,STATEN ISLAND,10301,40.6421201,-74.0752374,"(40.6421201, -74.0752374)",RICHMOND TERRACE                ,BAY STREET                      ,,0,0,0,0,0,0,0,0,Unspecified,Unspecified,,,,286709,PASSENGER VEHICLE,PASSENGER VEHICLE,,,
01/04/2013,8:15,STATEN ISLAND,10310,40.6291902,-74.1055786,"(40.6291902, -74.1055786)",BARD AVENUE                     ,MORRISON AVENUE                 ,,1,0,1,0,0,0,0,0,Passenger Distraction,,,,,286710,PASSENGER VEHICLE,,,,
01/04/2013,9:25,STATEN ISLAND,10314,40.6215624,-74.1247807,"(40.6215624, -74.1247807)",DELAWARE PLACE                  ,COLLEGE AVENUE                  ,,0,0,0,0,0,0,0,0,Unspecified,Unspecified,,,,286711,LARGE COM VEH(6 OR MORE TIRES),PASSENGER VEHICLE,,,
01/04/2013,21:35,STATEN ISLAND,10314,40.6109352,-74.1430572,"(40.6109352, -74.1430572)",CRYSTAL AVENUE                  ,VICTORY BOULEVARD               ,,0,0,0,0,0,0,0,0,Unspecified,Unspecified,,,,286712,PASSENGER VEHICLE,PASSENGER VEHICLE,,,
01/04/2013,8:00,STATEN ISLAND,10302,40.6399872,-74.137657,"(40.6399872, -74.137657)",TREADWELL AVENUE                ,RICHMOND TERRACE                ,,0,0,0,0,0,0,0,0,Unspecified,Unspecified,,,,286714,SPORT UTILITY / STATION WAGON,UNKNOWN,,,
01/04/2013,14:30,STATEN ISLAND,10301,40.6403573,-74.0978781,"(40.6403573, -74.0978781)",HENDERSON AVENUE                ,CLINTON AVENUE                  ,,1,0,1,0,0,0,0,0,Unspecified,,,,,286715,SPORT UTILITY / STATION WAGON,,,,
01/05/2013,13:15,STATEN ISLAND,10301,40.6265453,-74.0915823,"(40.6265453, -74.0915823)",VICTORY BOULEVARD               ,EDDY STREET                     ,,1,0,0,0,0,0,1,0,Unspecified,Unspecified,,,,286717,PASSENGER VEHICLE,PASSENGER VEHICLE,,,
01/05/2013,12:30,STATEN ISLAND,10301,40.6396523,-74.0755049,"(40.6396523, -74.0755049)",SLOSSON TERRACE                 ,BAY STREET                      ,,0,0,0,0,0,0,0,0,Unspecified,Unspecified,,,,286718,SPORT UTILITY / STATION WAGON,PASSENGER VEHICLE,,,
01/06/2013,7:25,STATEN ISLAND,10303,40.6405185,-74.1712872,"(40.6405185, -74.1712872)",RICHMOND TERRACE                ,HOLLAND AVENUE                  ,,1,0,0,0,0,0,1,0,Pavement Slippery,,,,,286719,PASSENGER VEHICLE,,,,
01/06/2013,19:00,STATEN ISLAND,10310,40.631729,-74.1248934,"(40.631729, -74.1248934)",CARY AVENUE                     ,CLOVE ROAD                      ,,1,0,1,0,0,0,0,0,Unspecified,,,,,286720,SPORT UTILITY / STATION WAGON,,,,
01/06/2013,18:40,STATEN ISLAND,10314,40.6109352,-74.1430572,"(40.6109352, -74.1430572)",VICTORY BOULEVARD               ,CRYSTAL AVENUE                  ,,0,0,0,0,0,0,0,0,Failure to Yield Right-of-Way,Unspecified,,,,286721,PASSENGER VEHICLE,PASSENGER VEHICLE,,,
01/06/2013,13:50,STATEN ISLAND,10302,40.6397083,-74.1390833,"(40.6397083, -74.1390833)",RICHMOND TERRACE                ,NICHOLAS AVENUE                 ,,0,0,0,0,0,0,0,0,Fatigued/Drowsy,Unspecified,,,,286722,PASSENGER VEHICLE,VAN,,,
01/06/2013,14:55,STATEN ISLAND,10301,40.6164151,-74.1035089,"(40.6164151, -74.1035089)",VICTORY BOULEVARD               ,CLOVE ROAD                      ,,0,0,0,0,0,0,0,0,Turning Improperly,Unspecified,,,,286723,PICK-UP TRUCK,SPORT UTILITY / STATION WAGON,,,
01/06/2013,11:30,STATEN ISLAND,10301,40.6359357,-74.0758465,"(40.6359357, -74.0758465)",BAY STREET                      ,HANNAH STREET                   ,,0,0,0,0,0,0,0,0,Prescription Medication,Unspecified,,,,286724,PASSENGER VEHICLE,SPORT UTILITY / STATION WAGON,,,
01/05/2013,20:40,STATEN ISLAND,10303,40.6251048,-74.1487686,"(40.6251048, -74.1487686)",FOREST AVENUE                   ,RICHMOND AVENUE                 ,,0,0,0,0,0,0,0,0,Turning Improperly,Unspecified,,,,286725,PASSENGER VEHICLE,SPORT UTILITY / STATION WAGON,,,
01/05/2013,20:00,STATEN ISLAND,10314,40.6124385,-74.1323057,"(40.6124385, -74.1323057)",VICTORY BOULEVARD               ,BRADLEY AVENUE                  ,,0,0,0,0,0,0,0,0,Backing Unsafely,Unspecified,,,,286726,PASSENGER VEHICLE,SPORT UTILITY / STATION WAGON,,,
01/01/2013,2:55,STATEN ISLAND,10304,40.6089813,-74.088126,"(40.6089813, -74.088126)",TARGEE STREET                   ,DEKALB STREET                   ,,4,0,0,0,0,0,4,0,Unspecified,Unspecified,Unspecified,,,286727,PASSENGER VEHICLE,SPORT UTILITY / STATION WAGON,SPORT UTILITY / STATION WAGON,,
01/07/2013,17:35,STATEN ISLAND,10310,40.6403851,-74.1206506,"(40.6403851, -74.1206506)",RICHMOND TERRACE                ,TOMPKINS COURT                  ,,1,0,0,0,0,0,1,0,Failure to Yield Right-of-Way,Unspecified,,,,286729,SPORT UTILITY / STATION WAGON,SPORT UTILITY / STATION WAGON,,,
01/06/2013,15:00,STATEN ISLAND,10301,40.6470277,-74.086969,"(40.6470277, -74.086969)",WESTERVELT AVENUE               ,CARROLL PLACE                   ,,1,0,0,0,0,0,1,0,Alcohol Involvement,Unspecified,Unspecified,,,286730,SPORT UTILITY / STATION WAGON,VAN,PASSENGER VEHICLE,,
01/06/2013,20:16,STATEN ISLAND,10302,40.6250632,-74.1358106,"(40.6250632, -74.1358106)",FOREST AVENUE                   ,BARRETT AVENUE                  ,,0,0,0,0,0,0,0,0,Backing Unsafely,Unspecified,,,,286733,PASSENGER VEHICLE,PASSENGER VEHICLE,,,
01/07/2013,8:23,STATEN ISLAND,10314,40.6142283,-74.1273099,"(40.6142283, -74.1273099)",CHANDLER AVENUE                 ,WESCOTT BOULEVARD               ,,0,0,0,0,0,0,0,0,Unspecified,Unspecified,,,,286734,SPORT UTILITY / STATION WAGON,PASSENGER VEHICLE,,,
01/07/2013,16:25,STATEN ISLAND,10302,40.6367596,-74.1351319,"(40.6367596, -74.1351319)",HARRISON AVENUE                 ,MAPLE AVENUE                    ,,0,0,0,0,0,0,0,0,Failure to Yield Right-of-Way,Unspecified,,,,286735,PASSENGER VEHICLE,SPORT UTILITY / STATION WAGON,,,
01/07/2013,9:08,STATEN ISLAND,10303,40.6358344,-74.1548672,"(40.6358344, -74.1548672)",VAN PELT AVENUE                 ,LAGUNA LANE                     ,,0,0,0,0,0,0,0,0,Failure to Yield Right-of-Way,Unspecified,,,,286736,PICK-UP TRUCK,SPORT UTILITY / STATION WAGON,,,
01/07/2013,19:22,STATEN ISLAND,10301,40.6384498,-74.0875416,"(40.6384498, -74.0875416)",JERSEY STREET                   ,WINTER AVENUE                   ,,0,0,0,0,0,0,0,0,Driver Inattention/Distraction,Unspecified,,,,286737,BUS,PASSENGER VEHICLE,,,
01/07/2013,17:40,STATEN ISLAND,10304,40.6235876,-74.0827706,"(40.6235876, -74.0827706)",GORDON STREET                   ,BROAD STREET                    ,,1,0,0,0,0,0,1,0,Traffic Control Disregarded,Unspecified,,,,286738,PASSENGER VEHICLE,PASSENGER VEHICLE,,,
01/07/2013,16:47,STATEN ISLAND,10301,40.6196656,-74.0996777,"(40.6196656, -74.0996777)",VICTORY BOULEVARD               ,EAST CHESHIRE PLACE             ,,0,0,0,0,0,0,0,0,Unspecified,Unspecified,,,,286739,PASSENGER VEHICLE,PASSENGER VEHICLE,,,
01/07/2013,10:25,STATEN ISLAND,10304,40.6232519,-74.0838257,"(40.6232519, -74.0838257)",BROAD STREET                    ,TARGEE STREET                   ,,0,0,0,0,0,0,0,0,Physical Disability,Unspecified,,,,286740,PASSENGER VEHICLE,UNKNOWN,,,
01/07/2013,20:15,STATEN ISLAND,10303,40.6262181,-74.1578241,"(40.6262181, -74.1578241)",FOREST AVENUE                   ,UNION AVENUE                    ,,0,0,0,0,0,0,0,0,Backing Unsafely,Unspecified,,,,286741,SPORT UTILITY / STATION WAGON,SPORT UTILITY / STATION WAGON,,,
01/07/2013,19:35,STATEN ISLAND,10301,40.6444685,-74.0768544,"(40.6444685, -74.0768544)",RICHMOND TERRACE                ,WALL STREET                     ,,0,0,0,0,0,0,0,0,Unspecified,Unspecified,,,,286742,PASSENGER VEHICLE,UNKNOWN,,,
01/05/2013,18:30,STATEN ISLAND,10302,40.6248377,-74.1361812,"(40.6248377, -74.1361812)",FOREST AVENUE                   ,ELDRIDGE AVENUE                 ,,1,0,0,0,0,0,1,0,Unspecified,Unspecified,,,,286743,SPORT UTILITY / STATION WAGON,SPORT UTILITY / STATION WAGON,,,
01/08/2013,10:55,STATEN ISLAND,10302,40.6285391,-74.1418557,"(40.6285391, -74.1418557)",PORT RICHMOND AVENUE            ,ORANGE AVENUE                   ,,0,0,0,0,0,0,0,0,Other Vehicular,Other Vehicular,,,,286744,SPORT UTILITY / STATION WAGON,SPORT UTILITY / STATION WAGON,,,
01/08/2013,11:05,STATEN ISLAND,10302,40.6321208,-74.1328311,"(40.6321208, -74.1328311)",DECKER AVENUE                   ,POST AVENUE                     ,,1,0,0,0,0,0,1,0,Other Vehicular,Other Vehicular,Unspecified,,,286745,SPORT UTILITY / STATION WAGON,LARGE COM VEH(6 OR MORE TIRES),SPORT UTILITY / STATION WAGON,,
01/08/2013,17:45,STATEN ISLAND,10301,40.6258997,-74.0887211,"(40.6258997, -74.0887211)",EDDY STREET                     ,HOWARD AVENUE                   ,,0,0,0,0,0,0,0,0,Unspecified,Unspecified,,,,286746,PASSENGER VEHICLE,UNKNOWN,,,
01/08/2013,8:20,STATEN ISLAND,10301,40.645475,-74.0928623,"(40.645475, -74.0928623)",FRANKLIN AVENUE                 ,RICHMOND TERRACE                ,,0,0,0,0,0,0,0,0,Unspecified,Unspecified,Unspecified,,,286749,SPORT UTILITY / STATION WAGON,PASSENGER VEHICLE,SPORT UTILITY / STATION WAGON,,
01/08/2013,9:00,STATEN ISLAND,10314,40.616363,-74.1567562,"(40.616363, -74.1567562)",RICHMOND AVENUE                 ,GOETHALS ROAD NORTH             ,,1,0,0,0,0,0,1,0,Unspecified,Unspecified,,,,286750,BUS,PASSENGER VEHICLE,,,
01/07/2013,8:10,STATEN ISLAND,10314,40.6241905,-74.1489899,"(40.6241905, -74.1489899)",MONSEY PLACE                    ,RICHMOND AVENUE                 ,,0,0,0,0,0,0,0,0,Unspecified,Unspecified,,,,286751,PASSENGER VEHICLE,PASSENGER VEHICLE,,,
01/07/2013,8:40,STATEN ISLAND,10302,40.6360955,-74.1373247,"(40.6360955, -74.1373247)",CASTLETON AVENUE                ,SHARPE AVENUE                   ,,2,0,0,0,0,0,2,0,Unspecified,Unspecified,,,,286752,SPORT UTILITY / STATION WAGON,SPORT UTILITY / STATION WAGON,,,
01/02/2013,7:00,STATEN ISLAND,10302,40.6382111,-74.1331999,"(40.6382111, -74.1331999)",PORT RICHMOND AVENUE            ,BENNETT STREET                  ,,1,0,0,0,0,0,1,0,Physical Disability,Unspecified,,,,286755,PASSENGER VEHICLE,PASSENGER VEHICLE,,,
01/09/2013,2:40,STATEN ISLAND,10301,40.6331915,-74.0789923,"(40.6331915, -74.0789923)",SAINT PAULS AVENUE              ,PAXTON STREET                   ,,0,0,0,0,0,0,0,0,Unspecified,Unspecified,,,,286756,PASSENGER VEHICLE,UNKNOWN,,,
01/09/2013,13:05,STATEN ISLAND,10301,40.6419624,-74.0770425,"(40.6419624, -74.0770425)",HYATT STREET                    ,CENTRAL AVENUE                  ,,0,0,0,0,0,0,0,0,Unspecified,Unspecified,,,,286758,PASSENGER VEHICLE,UNKNOWN,,,
01/09/2013,14:30,STATEN ISLAND,10301,40.6302913,-74.0889035,"(40.6302913, -74.0889035)",VICTORY BOULEVARD               ,FOREST AVENUE                   ,,0,0,0,0,0,0,0,0,Unspecified,Unspecified,,,,286760,PASSENGER VEHICLE,SPORT UTILITY / STATION WAGON,,,
01/09/2013,14:50,STATEN ISLAND,10314,40.6206415,-74.1592121,"(40.6206415, -74.1592121)",ADA DRIVE                       ,ARLENE COURT                    ,,0,0,0,0,0,0,0,0,Unspecified,Unspecified,,,,286761,SPORT UTILITY / STATION WAGON,SPORT UTILITY / STATION WAGON,,,
01/09/2013,14:30,STATEN ISLAND,10310,40.6340778,-74.1230675,"(40.6340778, -74.1230675)",CASTLETON AVENUE                ,TAYLOR STREET                   ,,0,0,0,0,0,0,0,0,Unspecified,Unspecified,Unspecified,,,286762,PASSENGER VEHICLE,PASSENGER VEHICLE,PASSENGER VEHICLE,,
01/09/2013,11:23,STATEN ISLAND,10301,40.6396523,-74.0755049,"(40.6396523, -74.0755049)",BAY STREET                      ,SLOSSON TERRACE                 ,,0,0,0,0,0,0,0,0,Unspecified,Unspecified,,,,286763,PASSENGER VEHICLE,PASSENGER VEHICLE,,,
01/09/2013,12:50,STATEN ISLAND,10301,40.6359357,-74.0758465,"(40.6359357, -74.0758465)",HANNAH STREET                   ,BAY STREET                      ,,0,0,0,0,0,0,0,0,Unspecified,Unspecified,,,,286764,PASSENGER VEHICLE,UNKNOWN,,,
01/09/2013,14:05,STATEN ISLAND,10302,40.6263946,-74.1333312,"(40.6263946, -74.1333312)",FOREST AVENUE                   ,HAMLIN PLACE                    ,,0,0,0,0,0,0,0,0,Unspecified,Unspecified,,,,286765,PASSENGER VEHICLE,SPORT UTILITY / STATION WAGON,,,
01/09/2013,17:00,STATEN ISLAND,10314,40.6124385,-74.1323057,"(40.6124385, -74.1323057)",VICTORY BOULEVARD               ,BRADLEY AVENUE                  ,,0,0,0,0,0,0,0,0,Unspecified,Unspecified,,,,286766,PASSENGER VEHICLE,PASSENGER VEHICLE,,,
01/09/2013,22:45,STATEN ISLAND,10302,40.6360955,-74.1373247,"(40.6360955, -74.1373247)",SHARPE AVENUE                   ,CASTLETON AVENUE                ,,0,0,0,0,0,0,0,0,Unspecified,Unspecified,Unspecified,,,286767,SPORT UTILITY / STATION WAGON,UNKNOWN,SPORT UTILITY / STATION WAGON,,
01/09/2013,19:00,STATEN ISLAND,10304,40.6189153,-74.0836761,"(40.6189153, -74.0836761)",GORDON STREET                   ,OSGOOD AVENUE                   ,,1,0,1,0,0,0,0,0,Unspecified,,,,,286768,UNKNOWN,,,,
01/09/2013,8:00,STATEN ISLAND,10305,40.6133156,-74.0718661,"(40.6133156, -74.0718661)",TOMPKINS AVENUE                 ,VIRGINIA AVENUE                 ,,0,0,0,0,0,0,0,0,Unspecified,Unspecified,,,,286769,PASSENGER VEHICLE,PASSENGER VEHICLE,,,
01/08/2013,21:48,STATEN ISLAND,10301,40.6124196,-74.0993499,"(40.6124196, -74.0993499)",TIOGA STREET                    ,CLOVE ROAD                      ,,0,0,0,0,0,0,0,0,Unspecified,Unspecified,,,,286771,SMALL COM VEH(4 TIRES) ,PASSENGER VEHICLE,,,
01/09/2013,11:05,STATEN ISLAND,10305,40.6043968,-74.0689971,"(40.6043968, -74.0689971)",NARROWS ROAD NORTH              ,FINGERBOARD ROAD                ,,1,0,0,0,0,0,1,0,Unspecified,Unspecified,,,,286772,PASSENGER VEHICLE,PASSENGER VEHICLE,,,
01/10/2013,8:00,STATEN ISLAND,10314,40.6125794,-74.1291581,"(40.6125794, -74.1291581)",QUINLAN AVENUE                  ,VICTORY BOULEVARD               ,,0,0,0,0,0,0,0,0,Unspecified,Unspecified,,,,286773,PASSENGER VEHICLE,UNKNOWN,,,
01/10/2013,8:00,STATEN ISLAND,10314,40.6125794,-74.1291581,"(40.6125794, -74.1291581)",QUINLAN AVENUE                  ,VICTORY BOULEVARD               ,,0,0,0,0,0,0,0,0,Unspecified,Unspecified,,,,286774,PASSENGER VEHICLE,UNKNOWN,,,
01/10/2013,5:30,STATEN ISLAND,10310,40.6263283,-74.1313101,"(40.6263283, -74.1313101)",FOREST AVENUE                   ,JEWETT AVENUE                   ,,0,0,0,0,0,0,0,0,Unspecified,Unspecified,,,,286775,PASSENGER VEHICLE,PASSENGER VEHICLE,,,
01/10/2013,8:20,STATEN ISLAND,10314,40.6125794,-74.1291581,"(40.6125794, -74.1291581)",QUINLAN AVENUE                  ,VICTORY BOULEVARD               ,,0,0,0,0,0,0,0,0,Unspecified,Unspecified,,,,286776,PASSENGER VEHICLE,UNKNOWN,,,
01/10/2013,13:30,STATEN ISLAND,10303,40.6354596,-74.1455634,"(40.6354596, -74.1455634)",MORNINGSTAR ROAD                ,NEWARK AVENUE                   ,,0,0,0,0,0,0,0,0,Unspecified,Unspecified,,,,286777,SPORT UTILITY / STATION WAGON,PASSENGER VEHICLE,,,
01/10/2013,13:52,STATEN ISLAND,10301,40.6302913,-74.0889035,"(40.6302913, -74.0889035)",VICTORY BOULEVARD               ,FOREST AVENUE                   ,,0,0,0,0,0,0,0,0,Unspecified,Unspecified,,,,286778,SPORT UTILITY / STATION WAGON,PASSENGER VEHICLE,,,
01/10/2013,15:30,STATEN ISLAND,10301,40.6194099,-74.0902254,"(40.6194099, -74.0902254)",HOWARD AVENUE                   ,ARLO ROAD                       ,,0,0,0,0,0,0,0,0,Unspecified,Unspecified,,,,286779,PASSENGER VEHICLE,PASSENGER VEHICLE,,,
01/10/2013,18:50,STATEN ISLAND,10301,40.6202965,-74.109109,"(40.6202965, -74.109109)",CLOVE ROAD                      ,GREENWAY DRIVE                  ,,0,0,0,0,0,0,0,0,Unspecified,Unspecified,,,,286780,PASSENGER VEHICLE,PASSENGER VEHICLE,,,
01/10/2013,21:20,STATEN ISLAND,10301,40.6196995,-74.1077068,"(40.6196995, -74.1077068)",CLOVE ROAD                      ,FAIRWAY LANE                    ,,3,0,0,0,0,0,3,0,Unspecified,Unspecified,Unspecified,Unspecified,Unspecified,286783,PASSENGER VEHICLE,PASSENGER VEHICLE,SPORT UTILITY / STATION WAGON,PASSENGER VEHICLE,UNKNOWN
01/11/2013,10:00,STATEN ISLAND,10301,40.6440727,-74.0777656,"(40.6440727, -74.0777656)",STUYVESANT PLACE                ,WALL STREET                     ,,0,0,0,0,0,0,0,0,Unspecified,Unspecified,,,,286784,PASSENGER VEHICLE,PASSENGER VEHICLE,,,
01/11/2013,12:50,STATEN ISLAND,10304,40.6165331,-74.0869869,"(40.6165331, -74.0869869)",METCALFE STREET                 ,VANDUZER STREET                 ,,0,0,0,0,0,0,0,0,Unspecified,Unspecified,,,,286785,UNKNOWN,PASSENGER VEHICLE,,,
01/11/2013,14:16,STATEN ISLAND,10301,40.6354927,-74.077453,"(40.6354927, -74.077453)",,,D/W 74 HANNAH STREET                    ,0,0,0,0,0,0,0,0,Unspecified,Unspecified,,,,286786,PASSENGER VEHICLE,UNKNOWN,,,
01/10/2013,18:30,STATEN ISLAND,10314,40.6167402,-74.1432606,"(40.6167402, -74.1432606)",WATCHOGUE ROAD                  ,COLLFIELD AVENUE                ,,1,0,1,0,0,0,0,0,Unspecified,,,,,286787,PASSENGER VEHICLE,,,,
01/10/2013,12:20,STATEN ISLAND,10303,40.6385423,-74.1712317,"(40.6385423, -74.1712317)",,,D/W 85 HOLLAND AVENUE                   ,0,0,0,0,0,0,0,0,Unspecified,Unspecified,,,,286788,PASSENGER VEHICLE,UNKNOWN,,,
01/11/2013,21:30,STATEN ISLAND,10301,40.6447584,-74.0997151,"(40.6447584, -74.0997151)",TYSEN STREET                    ,RICHMOND TERRACE                ,,1,0,0,0,0,0,1,0,Pavement Slippery,,,,,286789,PASSENGER VEHICLE,,,,
01/11/2013,16:15,STATEN ISLAND,10314,40.6098013,-74.1410775,"(40.6098013, -74.1410775)",WOOLLEY AVENUE                  ,PURDY AVENUE                    ,,1,0,0,0,0,0,1,0,Driver Inattention/Distraction,Unspecified,,,,286790,PASSENGER VEHICLE,PASSENGER VEHICLE,,,
01/11/2013,21:35,STATEN ISLAND,10314,40.6113053,-74.1412032,"(40.6113053, -74.1412032)",VICTORY BOULEVARD               ,WOOLLEY AVENUE                  ,,2,0,0,0,0,0,2,0,View Obstructed/Limited,View Obstructed/Limited,,,,286791,SPORT UTILITY / STATION WAGON,SPORT UTILITY / STATION WAGON,,,
01/11/2013,19:24,STATEN ISLAND,10301,40.6140763,-74.0975262,"(40.6140763, -74.0975262)",HOWARD AVENUE                   ,GRAND AVENUE                    ,,1,0,1,0,0,0,0,0,Pavement Slippery,,,,,286792,PASSENGER VEHICLE,,,,
01/11/2013,17:00,STATEN ISLAND,10301,40.6308059,-74.1036825,"(40.6308059, -74.1036825)",METROPOLITAN AVENUE             ,FOREST AVENUE                   ,,0,0,0,0,0,0,0,0,Unspecified,Unspecified,,,,286793,PASSENGER VEHICLE,PASSENGER VEHICLE,,,
01/11/2013,9:00,STATEN ISLAND,10303,40.6273669,-74.1665593,"(40.6273669, -74.1665593)",SOUTH AVENUE                    ,FOREST AVENUE                   ,,0,0,0,0,0,0,0,0,Unspecified,Unspecified,,,,286794,PASSENGER VEHICLE,SPORT UTILITY / STATION WAGON,,,
01/12/2013,4:10,STATEN ISLAND,10304,40.6172954,-74.0804791,"(40.6172954, -74.0804791)",PARK HILL AVENUE                ,OSGOOD AVENUE                   ,,0,0,0,0,0,0,0,0,Unspecified,Unspecified,,,,286795,SPORT UTILITY / STATION WAGON,UNKNOWN,,,
01/11/2013,11:15,STATEN ISLAND,10301,40.6435221,-74.0761506,"(40.6435221, -74.0761506)",SCHUYLER STREET                 ,RICHMOND TERRACE                ,,0,0,0,0,0,0,0,0,Unspecified,Unspecified,,,,286796,VAN,PASSENGER VEHICLE,,,
01/12/2013,10:06,STATEN ISLAND,10305,40.6175171,-74.0686576,"(40.6175171, -74.0686576)",BAY STREET                      ,CHESTNUT AVENUE                 ,,0,0,0,0,0,0,0,0,Unspecified,Unspecified,,,,286797,PASSENGER VEHICLE,PASSENGER VEHICLE,,,
01/12/2013,11:00,STATEN ISLAND,10302,40.624884,-74.1432708,"(40.624884, -74.1432708)",,,D/W 1637 FOREST AVENUE                  ,0,0,0,0,0,0,0,0,Unspecified,Unspecified,,,,286798,PASSENGER VEHICLE,UNKNOWN,,,
01/12/2013,13:39,STATEN ISLAND,10301,40.6334622,-74.0765355,"(40.6334622, -74.0765355)",VANDUZER STREET                 ,GRANT STREET                    ,,0,0,0,0,0,0,0,0,Unspecified,Unspecified,,,,286799,OTHER,PASSENGER VEHICLE,,,
01/12/2013,23:30,STATEN ISLAND,10310,40.6280488,-74.1269148,"(40.6280488, -74.1269148)",GREENLEAF AVENUE                ,DELAFIELD AVENUE                ,,0,0,0,0,0,0,0,0,Unspecified,Unspecified,,,,286800,PASSENGER VEHICLE,PASSENGER VEHICLE,,,
01/12/2013,22:40,STATEN ISLAND,10310,40.637135,-74.1234731,"(40.637135, -74.1234731)",TRINITY PLACE                   ,TAYLOR STREET                   ,,0,0,0,0,0,0,0,0,Unspecified,Unspecified,,,,286802,SPORT UTILITY / STATION WAGON,SPORT UTILITY / STATION WAGON,,,
01/13/2013,8:00,STATEN ISLAND,10301,40.6206882,-74.1100138,"(40.6206882, -74.1100138)",CLOVE ROAD                      ,BARD AVENUE                     ,,0,0,0,0,0,0,0,0,Unspecified,Unspecified,,,,286803,PASSENGER VEHICLE,UNKNOWN,,,
01/13/2013,10:00,STATEN ISLAND,10305,40.6107459,-74.063666,"(40.6107459, -74.063666)",BAY STREET                      ,HOPE AVENUE                     ,,0,0,0,0,0,0,0,0,Unspecified,Unspecified,,,,286804,PASSENGER VEHICLE,UNKNOWN,,,
01/12/2013,14:00,STATEN ISLAND,10302,40.6242451,-74.1382622,"(40.6242451, -74.1382622)",FOREST AVENUE                   ,MARIANNE STREET                 ,,0,0,0,0,0,0,0,0,Unspecified,Unspecified,,,,286805,UNKNOWN,SPORT UTILITY / STATION WAGON,,,
01/12/2013,18:15,STATEN ISLAND,10301,40.6371336,-74.0820235,"(40.6371336, -74.0820235)",BROOK STREET                    ,WESTERVELT AVENUE               ,,0,0,0,0,0,0,0,0,Unspecified,Unspecified,,,,286806,SPORT UTILITY / STATION WAGON,SPORT UTILITY / STATION WAGON,,,
01/13/2013,3:11,STATEN ISLAND,10303,40.6254226,-74.1513486,"(40.6254226, -74.1513486)",FOREST AVENUE                   ,SANDERS STREET                  ,,0,0,0,0,0,0,0,0,Unspecified,,,,,286808,SPORT UTILITY / STATION WAGON,,,,
01/13/2013,7:11,STATEN ISLAND,10314,40.6130779,-74.122557,"(40.6130779, -74.122557)",MANOR ROAD                      ,VICTORY BOULEVARD               ,,0,0,0,0,0,0,0,0,Unspecified,,,,,286809,SPORT UTILITY / STATION WAGON,,,,
01/13/2013,16:00,STATEN ISLAND,10301,40.6121142,-74.1001742,"(40.6121142, -74.1001742)",TIOGA STREET                    ,ONEIDA AVENUE                   ,,0,0,0,0,0,0,0,0,Backing Unsafely,Unspecified,,,,286810,SPORT UTILITY / STATION WAGON,PASSENGER VEHICLE,,,
01/14/2013,17:00,STATEN ISLAND,10301,40.6108889,-74.1014113,"(40.6108889, -74.1014113)",LITTLE CLOVE ROAD               ,SENECA AVENUE                   ,,1,0,0,0,0,0,1,0,Unspecified,Unspecified,,,,286811,PASSENGER VEHICLE,SPORT UTILITY / STATION WAGON,,,
01/14/2013,15:00,STATEN ISLAND,10301,40.6333269,-74.0925212,"(40.6333269, -74.0925212)",HARBORVIEW COURT                ,CASTLETON AVENUE                ,,0,0,0,0,0,0,0,0,Other Vehicular,Unspecified,,,,286812,SPORT UTILITY / STATION WAGON,SPORT UTILITY / STATION WAGON,,,
01/14/2013,17:50,STATEN ISLAND,10310,40.6266721,-74.1282631,"(40.6266721, -74.1282631)",FOREST AVENUE                   ,DUBOIS AVENUE                   ,,0,0,0,0,0,0,0,0,Other Vehicular,Unspecified,,,,286813,PASSENGER VEHICLE,PASSENGER VEHICLE,,,
01/13/2013,15:18,STATEN ISLAND,10301,40.643643,-74.0910725,"(40.643643, -74.0910725)",EAST BUCHANAN STREET            ,HARVARD AVENUE                  ,,0,0,0,0,0,0,0,0,Unspecified,Unspecified,,,,286814,SPORT UTILITY / STATION WAGON,PASSENGER VEHICLE,,,
01/15/2013,0:40,STATEN ISLAND,10304,40.6211975,-74.0778542,"(40.6211975, -74.0778542)",TOMPKINS AVENUE                 ,THELMA COURT                    ,,1,0,0,0,0,0,1,0,Traffic Control Disregarded,Unspecified,Unspecified,,,286815,SPORT UTILITY / STATION WAGON,SPORT UTILITY / STATION WAGON,PASSENGER VEHICLE,,
01/12/2013,14:40,STATEN ISLAND,10304,40.6135884,-74.0826645,"(40.6135884, -74.0826645)",PARK HILL AVENUE                ,SOBEL COURT                     ,,0,0,0,0,0,0,0,0,Unspecified,Unspecified,,,,286816,PASSENGER VEHICLE,UNKNOWN,,,
01/14/2013,20:12,STATEN ISLAND,10314,40.6124385,-74.1323057,"(40.6124385, -74.1323057)",VICTORY BOULEVARD               ,BRADLEY AVENUE                  ,,1,0,0,0,0,0,1,0,Fatigued/Drowsy,Unspecified,Unspecified,,,286817,PASSENGER VEHICLE,SPORT UTILITY / STATION WAGON,PASSENGER VEHICLE,,
01/14/2013,12:12,STATEN ISLAND,10314,40.610543,-74.1450121,"(40.610543, -74.1450121)",VICTORY BOULEVARD               ,BRYSON AVENUE                   ,,1,0,0,0,0,0,1,0,Physical Disability,Unspecified,,,,286818,PASSENGER VEHICLE,SPORT UTILITY / STATION WAGON,,,
01/14/2013,15:12,STATEN ISLAND,10310,40.6278216,-74.1212583,"(40.6278216, -74.1212583)",FOREST AVENUE                   ,CLOVE ROAD                      ,,0,0,0,0,0,0,0,0,Fatigued/Drowsy,Unspecified,,,,286819,SPORT UTILITY / STATION WAGON,PASSENGER VEHICLE,,,
01/14/2013,8:30,STATEN ISLAND,10301,40.6407689,-74.0947511,"(40.6407689, -74.0947511)",LAFAYETTE AVENUE                ,HENDERSON AVENUE                ,,0,0,0,0,0,0,0,0,Driver Inattention/Distraction,Unspecified,Unspecified,,,286820,SPORT UTILITY / STATION WAGON,PASSENGER VEHICLE,PASSENGER VEHICLE,,
01/14/2013,14:45,STATEN ISLAND,10301,40.6439223,-74.0727351,"(40.6439223, -74.0727351)",,,P/L 1 RICHMOND TERRACE                  ,0,0,0,0,0,0,0,0,Unspecified,Unspecified,,,,286821,PASSENGER VEHICLE,UNKNOWN,,,
01/14/2013,16:00,STATEN ISLAND,10301,40.6440727,-74.0777656,"(40.6440727, -74.0777656)",STUYVESANT PLACE                ,WALL STREET                     ,,0,0,0,0,0,0,0,0,Unspecified,Unspecified,,,,286822,PASSENGER VEHICLE,UNKNOWN,,,
01/14/2013,20:30,STATEN ISLAND,10314,40.6166816,-74.1586624,"(40.6166816, -74.1586624)",DOMAIN STREET                   ,GOETHALS ROAD NORTH             ,,0,0,0,0,0,0,0,0,Unspecified,Unspecified,,,,286823,SPORT UTILITY / STATION WAGON,UNKNOWN,,,
01/14/2013,9:15,STATEN ISLAND,10314,40.6130414,-74.1233169,"(40.6130414, -74.1233169)",,,P/L 1795 VICTORY BOULEVARD              ,0,0,0,0,0,0,0,0,Oversized Vehicle,Unspecified,,,,286824,PICK-UP TRUCK,PASSENGER VEHICLE,,,
01/14/2013,2:10,STATEN ISLAND,10304,40.6154607,-74.0781933,"(40.6154607, -74.0781933)",OSGOOD AVENUE                   ,STAGE LANE                      ,,0,0,0,0,0,0,0,0,Traffic Control Disregarded,,,,,286825,PASSENGER VEHICLE,,,,
01/15/2013,7:00,STATEN ISLAND,10301,40.6466639,-74.0889325,"(40.6466639, -74.0889325)",RICHMOND TERRACE                ,JERSEY STREET                   ,,1,0,0,0,0,0,1,0,Unspecified,Unspecified,,,,286826,PASSENGER VEHICLE,PASSENGER VEHICLE,,,
01/13/2013,0:15,STATEN ISLAND,10304,40.6138362,-74.0889644,"(40.6138362, -74.0889644)",,,D/W 41 CEDAR TERRACE                    ,0,0,0,0,0,0,0,0,Unspecified,Unspecified,,,,286827,PASSENGER VEHICLE,SPORT UTILITY / STATION WAGON,,,
01/15/2013,8:15,STATEN ISLAND,10301,40.6110361,-74.0995027,"(40.6110361, -74.0995027)",ONEIDA AVENUE                   ,LITTLE CLOVE ROAD               ,,0,0,0,0,0,0,0,0,Unspecified,Unspecified,,,,286829,PASSENGER VEHICLE,PASSENGER VEHICLE,,,
01/08/2013,19:00,STATEN ISLAND,10301,40.6327717,-74.0900381,"(40.6327717, -74.0900381)",CASTLETON AVENUE                ,WOODSTOCK AVENUE                ,,0,0,0,0,0,0,0,0,Unspecified,Unspecified,,,,286830,PASSENGER VEHICLE,PASSENGER VEHICLE,,,
01/15/2013,13:00,STATEN ISLAND,10304,40.6152063,-74.0846476,"(40.6152063, -74.0846476)",VANDERBILT AVENUE               ,TARGEE STREET                   ,,0,0,0,0,0,0,0,0,Unspecified,Unspecified,,,,286831,PASSENGER VEHICLE,UNKNOWN,,,
01/15/2013,13:19,STATEN ISLAND,10301,40.6340055,-74.0983876,"(40.6340055, -74.0983876)",CASTLETON AVENUE                ,RIDGEWOOD PLACE                 ,,1,0,0,0,0,0,1,0,Unspecified,Unspecified,,,,286832,SPORT UTILITY / STATION WAGON,SPORT UTILITY / STATION WAGON,,,
01/15/2013,16:40,STATEN ISLAND,10304,40.6166226,-74.0847863,"(40.6166226, -74.0847863)",ROFF STREET                     ,TARGEE STREET                   ,,1,0,1,0,0,0,0,0,Unspecified,,,,,286833,SPORT UTILITY / STATION WAGON,,,,
01/15/2013,11:38,STATEN ISLAND,10314,40.6127491,-74.1271126,"(40.6127491, -74.1271126)",WESTCOTT BOULEVARD              ,VICTORY BOULEVARD               ,,0,0,0,0,0,0,0,0,Unspecified,Unspecified,,,,286834,SPORT UTILITY / STATION WAGON,PASSENGER VEHICLE,,,
01/15/2013,12:35,STATEN ISLAND,10303,40.6273669,-74.1665593,"(40.6273669, -74.1665593)",FOREST AVENUE                   ,SOUTH AVENUE                    ,,0,0,0,0,0,0,0,0,Unspecified,Unspecified,,,,286835,PASSENGER VEHICLE,PASSENGER VEHICLE,,,
01/08/2013,15:30,STATEN ISLAND,10310,40.6296844,-74.1112247,"(40.6296844, -74.1112247)",FOREST AVENUE                   ,BEMENT AVENUE                   ,,0,0,0,0,0,0,0,0,Unspecified,Unspecified,,,,286836,PASSENGER VEHICLE,SPORT UTILITY / STATION WAGON,,,
01/11/2013,18:43,STATEN ISLAND,10304,40.6129315,-74.0874865,"(40.6129315, -74.0874865)",RICHMOND ROAD                   ,MARY STREET                     ,,0,0,0,0,0,0,0,0,Unspecified,Unspecified,,,,286837,PASSENGER VEHICLE,VAN,,,
01/06/2013,13:00,STATEN ISLAND,10303,40.6361633,-74.165086,"(40.6361633, -74.165086)",,,D/W 140 GRANDVIEW AVENUE                ,0,0,0,0,0,0,0,0,Unspecified,Unspecified,,,,286838,SPORT UTILITY / STATION WAGON,UNKNOWN,,,
01/15/2013,23:32,STATEN ISLAND,10304,40.6224636,-74.0725352,"(40.6224636, -74.0725352)",VANDERBILT AVENUE               ,BAY STREET                      ,,0,0,0,0,0,0,0,0,Unspecified,Unspecified,,,,286839,PASSENGER VEHICLE,PASSENGER VEHICLE,,,
01/16/2013,6:30,STATEN ISLAND,10302,40.6308856,-74.1304761,"(40.6308856, -74.1304761)",JEWETT AVENUE                   ,POST AVENUE                     ,,0,0,0,0,0,0,0,0,Unspecified,Unspecified,,,,286841,PASSENGER VEHICLE,PASSENGER VEHICLE,,,
01/16/2013,8:10,STATEN ISLAND,10301,40.6421201,-74.0752374,"(40.6421201, -74.0752374)",BAY STREET                      ,RICHMOND TERRACE                ,,0,0,0,0,0,0,0,0,Unspecified,Unspecified,,,,286842,OTHER,SPORT UTILITY / STATION WAGON,,,
01/16/2013,10:13,STATEN ISLAND,10314,40.6120921,-74.1177253,"(40.6120921, -74.1177253)",WINDSOR ROAD                    ,HENNING STREET                  ,,0,0,0,0,0,0,0,0,Unspecified,Unspecified,,,,286843,PASSENGER VEHICLE,PASSENGER VEHICLE,,,
01/16/2013,9:50,STATEN ISLAND,10305,40.610015,-74.0741496,"(40.610015, -74.0741496)",HYLAN BOULEVARD                 ,REYNOLDS STREET                 ,,0,0,0,0,0,0,0,0,Unspecified,Unspecified,,,,286844,SPORT UTILITY / STATION WAGON,PASSENGER VEHICLE,,,
01/16/2013,14:40,STATEN ISLAND,10301,40.6435221,-74.0761506,"(40.6435221, -74.0761506)",RICHMOND TERRACE                ,SCHUYLER STREET                 ,,2,0,2,0,0,0,0,0,Backing Unsafely,,,,,286846,PASSENGER VEHICLE,,,,
01/17/2013,13:40,STATEN ISLAND,10301,40.647326,-74.0806811,"(40.647326, -74.0806811)",RICHMOND TERRACE                ,NICHOLAS STREET                 ,,0,0,0,0,0,0,0,0,Unspecified,Unspecified,,,,286847,PASSENGER VEHICLE,PASSENGER VEHICLE,,,
01/16/2013,16:12,STATEN ISLAND,10302,40.6228468,-74.141523,"(40.6228468, -74.141523)",GALLOWAY AVENUE                 ,CRYSTAL AVENUE                  ,,1,0,1,0,0,0,0,0,Unspecified,,,,,286848,UNKNOWN,,,,
01/17/2013,16:00,STATEN ISLAND,10301,40.6109558,-74.1034068,"(40.6109558, -74.1034068)",TIOGA STREET                    ,LITTLE CLOVE ROAD               ,,0,0,0,0,0,0,0,0,Unspecified,Unspecified,,,,286849,PASSENGER VEHICLE,PASSENGER VEHICLE,,,
01/17/2013,19:00,STATEN ISLAND,10314,40.6103441,-74.1460165,"(40.6103441, -74.1460165)",VICTORY BOULEVARD               ,STEWART AVENUE                  ,,0,0,0,0,0,0,0,0,Unspecified,Unspecified,,,,286850,PASSENGER VEHICLE,PASSENGER VEHICLE,,,
01/17/2013,10:07,STATEN ISLAND,10301,40.6346991,-74.1055188,"(40.6346991, -74.1055188)",CASTLETON AVENUE                ,HOYT AVENUE                     ,,0,0,0,0,0,0,0,0,Unspecified,Unspecified,,,,286852,PASSENGER VEHICLE,PASSENGER VEHICLE,,,
01/17/2013,18:15,STATEN ISLAND,10302,40.6242451,-74.1382622,"(40.6242451, -74.1382622)",MARIANNE STREET                 ,FOREST AVENUE                   ,,1,0,1,0,0,0,0,0,Unspecified,,,,,286853,PASSENGER VEHICLE,,,,
01/18/2013,8:00,STATEN ISLAND,10314,40.6133395,-74.1191826,"(40.6133395, -74.1191826)",VICTORY BOULEVARD               ,TODT HILL ROAD                  ,,0,0,0,0,0,0,0,0,Unspecified,Unspecified,,,,286854,PASSENGER VEHICLE,UNKNOWN,,,
01/17/2013,11:15,STATEN ISLAND,10314,40.6159979,-74.1375571,"(40.6159979, -74.1375571)",BIDWELL AVENUE                  ,WATCHOGUE ROAD                  ,,0,0,0,0,0,0,0,0,Unspecified,Unspecified,,,,286855,PASSENGER VEHICLE,PASSENGER VEHICLE,,,
01/18/2013,9:40,STATEN ISLAND,10301,40.6159667,-74.1045599,"(40.6159667, -74.1045599)",VICTORY BOULEVARD               ,SENECA AVENUE                   ,,0,0,0,0,0,0,0,0,Unspecified,Unspecified,,,,286856,PASSENGER VEHICLE,OTHER,,,
01/18/2013,10:00,STATEN ISLAND,10314,40.6126852,-74.127804,"(40.6126852, -74.127804)",VICTORY BOULEVARD               ,GANSEVOORT BOULEVARD            ,,0,0,0,0,0,0,0,0,Unspecified,Unspecified,,,,286857,PASSENGER VEHICLE,PASSENGER VEHICLE,,,
01/18/2013,15:54,STATEN ISLAND,10302,40.6245928,-74.1412853,"(40.6245928, -74.1412853)",FOREST AVENUE                   ,CRYSTAL AVENUE                  ,,1,0,1,0,0,0,0,0,Unspecified,,,,,286858,SPORT UTILITY / STATION WAGON,,,,
01/18/2013,18:00,STATEN ISLAND,10304,40.6261133,-74.0739765,"(40.6261133, -74.0739765)",FRONT STREET                    ,THOMPSON STREET                 ,,0,0,0,0,0,0,0,0,Lost Consciousness,Unspecified,,,,286859,PASSENGER VEHICLE,UNKNOWN,,,
01/18/2013,21:00,STATEN ISLAND,10301,40.6466639,-74.0889325,"(40.6466639, -74.0889325)",RICHMOND TERRACE                ,JERSEY STREET                   ,,0,0,0,0,0,0,0,0,Physical Disability,Physical Disability,,,,286860,PASSENGER VEHICLE,PASSENGER VEHICLE,,,
01/18/2013,21:00,STATEN ISLAND,10303,40.6305069,-74.1862235,"(40.6305069, -74.1862235)",GOETHALS ROAD NORTH             ,WESTERN AVENUE                  ,,0,0,0,0,0,0,0,0,Traffic Control Disregarded,Unspecified,,,,286861,PASSENGER VEHICLE,UNKNOWN,,,
01/19/2013,2:00,STATEN ISLAND,10303,40.63682,-74.1587607,"(40.63682, -74.1587607)",RICHMOND TERRACE                ,COONLEY COURT                   ,,0,0,0,0,0,0,0,0,Unspecified,Unspecified,,,,286862,SPORT UTILITY / STATION WAGON,SPORT UTILITY / STATION WAGON,,,
01/18/2013,12:00,STATEN ISLAND,10303,40.6215643,-74.1684829,"(40.6215643, -74.1684829)",SOUTH AVENUE                    ,GOETHALS ROAD NORTH             ,,0,0,0,0,0,0,0,0,Unspecified,Unspecified,,,,286863,SPORT UTILITY / STATION WAGON,UNKNOWN,,,
01/13/2013,15:40,STATEN ISLAND,10302,40.6252805,-74.1354761,"(40.6252805, -74.1354761)",FOREST AVENUE                   ,BURNSIDE AVENUE                 ,,0,0,0,0,0,0,0,0,Unspecified,Unspecified,,,,286864,SPORT UTILITY / STATION WAGON,UNKNOWN,,,
01/19/2013,10:30,STATEN ISLAND,10304,40.6246026,-74.0795982,"(40.6246026, -74.0795982)",TOMPKINS AVENUE                 ,BROAD STREET                    ,,0,0,0,0,0,0,0,0,Backing Unsafely,Unspecified,,,,286865,PASSENGER VEHICLE,PASSENGER VEHICLE,,,
01/19/2013,13:00,STATEN ISLAND,10310,40.6421503,-74.1150362,"(40.6421503, -74.1150362)",ELM STREET                      ,RICHMOND TERRACE                ,,0,0,0,0,0,0,0,0,Unspecified,Unspecified,,,,286867,PASSENGER VEHICLE,PASSENGER VEHICLE,,,
01/19/2013,4:30,STATEN ISLAND,10304,40.6133078,-74.0872096,"(40.6133078, -74.0872096)",VANDERBILT AVENUE               ,RICHMOND ROAD                   ,,0,0,0,0,0,0,0,0,Unspecified,Unspecified,,,,286868,SPORT UTILITY / STATION WAGON,UNKNOWN,,,
01/19/2013,16:30,STATEN ISLAND,10302,40.6251261,-74.1450293,"(40.6251261, -74.1450293)",VILLA AVENUE                    ,PORT RICHMOND AVENUE            ,,0,0,0,0,0,0,0,0,Unspecified,Unspecified,,,,286869,PASSENGER VEHICLE,SPORT UTILITY / STATION WAGON,,,
01/20/2013,1:03,STATEN ISLAND,10301,40.6302913,-74.0889035,"(40.6302913, -74.0889035)",VICTORY BOULEVARD               ,FOREST AVENUE                   ,,0,0,0,0,0,0,0,0,Unspecified,Unspecified,,,,286870,SPORT UTILITY / STATION WAGON,SPORT UTILITY / STATION WAGON,,,
01/20/2013,16:00,STATEN ISLAND,10304,40.6184927,-74.0755638,"(40.6184927, -74.0755638)",TOWNSEND AVENUE                 ,TOMPKINS AVENUE                 ,,0,0,0,0,0,0,0,0,Unspecified,Unspecified,,,,286871,PASSENGER VEHICLE,PASSENGER VEHICLE,,,
01/20/2013,16:10,STATEN ISLAND,10310,40.6236815,-74.1246982,"(40.6236815, -74.1246982)",MANOR ROAD                      ,ALPINE COURT                    ,,0,0,0,0,0,0,0,0,Unspecified,Unspecified,,,,286872,PASSENGER VEHICLE,PASSENGER VEHICLE,,,
01/11/2013,12:40,STATEN ISLAND,10301,40.6124196,-74.0993499,"(40.6124196, -74.0993499)",CLOVE ROAD                      ,HOWARD AVENUE                   ,,0,0,0,0,0,0,0,0,Unspecified,Unspecified,,,,286873,SPORT UTILITY / STATION WAGON,PASSENGER VEHICLE,,,
01/21/2013,6:15,STATEN ISLAND,10310,40.6217463,-74.1196695,"(40.6217463, -74.1196695)",SLOSSON AVENUE                  ,MARTLING AVENUE                 ,,1,0,0,0,0,0,1,0,Unspecified,,,,,286874,PASSENGER VEHICLE,,,,
01/21/2013,10:00,STATEN ISLAND,10301,40.6377001,-74.0880414,"(40.6377001, -74.0880414)",YORK AVENUE                     ,BRIGHTON AVENUE                 ,,0,0,0,0,0,0,0,0,Unspecified,Unspecified,,,,286875,PASSENGER VEHICLE,UNKNOWN,,,
01/21/2013,2:00,STATEN ISLAND,10310,40.6333738,-74.110903,"(40.6333738, -74.110903)",OAKLAND AVENUE                  ,CARY AVENUE                     ,,0,0,0,0,0,0,0,0,Unspecified,,,,,286877,SCOOTER,,,,
01/21/2013,15:05,STATEN ISLAND,10302,40.6308856,-74.1304761,"(40.6308856, -74.1304761)",JEWETT AVENUE                   ,POST AVENUE                     ,,0,0,0,0,0,0,0,0,Unspecified,Unspecified,,,,286878,PASSENGER VEHICLE,PASSENGER VEHICLE,,,
01/21/2013,14:20,STATEN ISLAND,10314,40.6119692,-74.1323192,"(40.6119692, -74.1323192)",,,P/L 18 BRADLEY AVE                      ,0,0,0,0,0,0,0,0,Unspecified,Unspecified,Unspecified,,,286879,PASSENGER VEHICLE,PASSENGER VEHICLE,PICK-UP TRUCK,,
01/21/2013,19:15,STATEN ISLAND,10304,40.6170976,-74.0807634,"(40.6170976, -74.0807634)",,,D/W 141 PARK HILL AVE                   ,0,0,0,0,0,0,0,0,Unspecified,Unspecified,Unspecified,,,286880,PASSENGER VEHICLE,PASSENGER VEHICLE,PASSENGER VEHICLE,,
01/21/2013,18:00,STATEN ISLAND,10304,40.627312,-74.0830634,"(40.627312, -74.0830634)",TARGEE STREET                   ,VAN DUZER STREET                ,,0,0,0,0,0,0,0,0,Unspecified,Unspecified,,,,286881,PASSENGER VEHICLE,PASSENGER VEHICLE,,,
01/21/2013,8:35,STATEN ISLAND,10305,40.609768,-74.0696797,"(40.609768, -74.0696797)",TOMPKINS AVENUE                 ,SAINT JOHNS AVENUE              ,,0,0,0,0,0,0,0,0,Oversized Vehicle,Unspecified,,,,286882,LARGE COM VEH(6 OR MORE TIRES),SPORT UTILITY / STATION WAGON,,,
01/21/2013,22:01,STATEN ISLAND,10314,40.6126852,-74.127804,"(40.6126852, -74.127804)",VICTORY BOULEVARD               ,GANSEVOORT BOULEVARD            ,,0,0,0,0,0,0,0,0,Driver Inattention/Distraction,Unspecified,,,,286883,PASSENGER VEHICLE,PASSENGER VEHICLE,,,
01/21/2013,20:45,STATEN ISLAND,10303,40.6245878,-74.1516854,"(40.6245878, -74.1516854)",SANDERS STREET                  ,MONSEY PLACE                    ,,0,0,0,0,0,0,0,0,Driver Inattention/Distraction,Unspecified,Unspecified,,,286884,UNKNOWN,PASSENGER VEHICLE,PASSENGER VEHICLE,,
01/21/2013,9:26,STATEN ISLAND,10314,40.6175119,-74.151554,"(40.6175119, -74.151554)",WILLOW ROAD EAST                ,WATCHOGUE ROAD                  ,,1,0,0,0,0,0,1,0,Failure to Yield Right-of-Way,Obstruction/Debris,,,,286885,PASSENGER VEHICLE,PASSENGER VEHICLE,,,
01/21/2013,16:40,STATEN ISLAND,10303,40.6358543,-74.1661878,"(40.6358543, -74.1661878)",ARLINGTON PLACE                 ,SOUTH AVENUE                    ,,0,0,0,0,0,0,0,0,Unspecified,Unspecified,,,,286886,PASSENGER VEHICLE,PASSENGER VEHICLE,,,
01/21/2013,19:45,STATEN ISLAND,10301,40.6403331,-74.08709,"(40.6403331, -74.08709)",JERSEY STREET                   ,PAUW STREET                     ,,0,0,0,0,0,0,0,0,Unspecified,Unspecified,,,,286887,PASSENGER VEHICLE,UNKNOWN,,,
01/21/2013,16:30,STATEN ISLAND,10305,40.6109329,-74.072339,"(40.6109329, -74.072339)",FOXHILL TERRACE                 ,HYLAN BOULEVARD                 ,,0,0,0,0,0,0,0,0,Unspecified,Unspecified,,,,286888,PASSENGER VEHICLE,PASSENGER VEHICLE,,,
01/22/2013,13:35,STATEN ISLAND,10302,40.6308856,-74.1304761,"(40.6308856, -74.1304761)",POST AVENUE                     ,JEWETT AVENUE                   ,,0,0,0,0,0,0,0,0,Unspecified,Unspecified,,,,286889,PASSENGER VEHICLE,SPORT UTILITY / STATION WAGON,,,
01/22/2013,14:25,STATEN ISLAND,10314,40.6113053,-74.1412032,"(40.6113053, -74.1412032)",VICTORY BOULEVARD               ,WOOLLEY AVENUE                  ,,0,0,0,0,0,0,0,0,Unspecified,Unspecified,,,,286890,PASSENGER VEHICLE,SPORT UTILITY / STATION WAGON,,,
01/22/2013,14:30,STATEN ISLAND,10301,40.6308059,-74.1036825,"(40.6308059, -74.1036825)",FOREST AVENUE                   ,KISSEL AVENUE                   ,,0,0,0,0,0,0,0,0,Unspecified,Unspecified,,,,286891,PASSENGER VEHICLE,PASSENGER VEHICLE,,,
01/22/2013,14:20,STATEN ISLAND,10314,40.6185178,-74.1278872,"(40.6185178, -74.1278872)",WESTCOTT BOULEVARD              ,KEIBER COURT                    ,,0,0,0,0,0,0,0,0,Unspecified,Unspecified,,,,286892,PASSENGER VEHICLE,SPORT UTILITY / STATION WAGON,,,
01/22/2013,7:40,STATEN ISLAND,10301,40.6474489,-74.0814596,"(40.6474489, -74.0814596)",,,D/W 252 RICHMOND TERRACE                ,0,0,0,0,0,0,0,0,Unspecified,Unspecified,,,,286893,PASSENGER VEHICLE,SPORT UTILITY / STATION WAGON,,,
01/22/2013,17:30,STATEN ISLAND,10303,40.6266276,-74.1614239,"(40.6266276, -74.1614239)",FOREST AVENUE                   ,SAMUEL PLACE                    ,,0,0,0,0,0,0,0,0,Unspecified,Unspecified,,,,286894,SPORT UTILITY / STATION WAGON,PASSENGER VEHICLE,,,
01/22/2013,17:05,STATEN ISLAND,10304,40.6236984,-74.0850978,"(40.6236984, -74.0850978)",,,D/W 661 VANDUZER STREET                 ,0,0,0,0,0,0,0,0,Unspecified,Unspecified,,,,286895,PASSENGER VEHICLE,SPORT UTILITY / STATION WAGON,,,
01/19/2013,4:00,STATEN ISLAND,10314,40.612816,-74.1261799,"(40.612816, -74.1261799)",,,P/L 1868 VICTORY BLVD                   ,1,0,0,0,0,0,1,0,Unspecified,Unspecified,,,,286896,PASSENGER VEHICLE,PASSENGER VEHICLE,,,
01/22/2013,22:50,STATEN ISLAND,10310,40.6282305,-74.1159525,"(40.6282305, -74.1159525)",BROADWAY                        ,MORRISON AVENUE                 ,,0,0,0,0,0,0,0,0,Unspecified,Unspecified,,,,286897,PASSENGER VEHICLE,PASSENGER VEHICLE,,,
01/22/2013,15:00,STATEN ISLAND,10304,40.6339552,-74.0857486,"(40.6339552, -74.0857486)",VICTORY BOULEVARD               ,CEBRA AVENUE                    ,,0,0,0,0,0,0,0,0,Unspecified,Unspecified,,,,286898,PASSENGER VEHICLE,UNKNOWN,,,
01/21/2013,23:25,STATEN ISLAND,10310,40.6347476,-74.1122528,"(40.6347476, -74.1122528)",CASTLETON AVENUE                ,BEMENT AVENUE                   ,,1,0,1,0,0,0,0,0,Failure to Yield Right-of-Way,,,,,286899,SPORT UTILITY / STATION WAGON,,,,
01/22/2013,16:10,STATEN ISLAND,10301,40.6382695,-74.0787893,"(40.6382695, -74.0787893)",VICTORY BOULEVARD               ,MONROE AVENUE                   ,,0,0,0,0,0,0,0,0,Unspecified,Unspecified,,,,286900,PASSENGER VEHICLE,PASSENGER VEHICLE,,,
01/23/2013,11:15,STATEN ISLAND,10301,40.6164151,-74.1035089,"(40.6164151, -74.1035089)",VICTORY BOULEVARD               ,CLOVE ROAD                      ,,0,0,0,0,0,0,0,0,Unspecified,Unspecified,,,,286901,PASSENGER VEHICLE,UNKNOWN,,,
01/23/2013,12:25,STATEN ISLAND,10310,40.6345197,-74.1178117,"(40.6345197, -74.1178117)",CASTLETON AVENUE                ,STATE STREET                    ,,0,0,0,0,0,0,0,0,Unspecified,Unspecified,,,,286902,PASSENGER VEHICLE,SPORT UTILITY / STATION WAGON,,,
01/23/2013,18:20,STATEN ISLAND,10304,40.6094024,-74.0901074,"(40.6094024, -74.0901074)",RICHMOND ROAD                   ,NARROWS ROAD NORTH              ,,0,0,0,0,0,0,0,0,Unspecified,,,,,286903,PASSENGER VEHICLE,,,,
01/23/2013,9:40,STATEN ISLAND,10301,40.6108984,-74.1000031,"(40.6108984, -74.1000031)",LITTLE CLOVE ROAD               ,NARROWS ROAD NORTH              ,,0,0,0,0,0,0,0,0,Unspecified,Unspecified,,,,286904,PASSENGER VEHICLE,PASSENGER VEHICLE,,,
01/22/2013,16:00,STATEN ISLAND,10305,40.6166419,-74.0680156,"(40.6166419, -74.0680156)",SYLVATON TERRACE                ,BAY STREET                      ,,1,0,0,0,0,0,1,0,Unspecified,Unspecified,Unspecified,Unspecified,,286905,PASSENGER VEHICLE,PASSENGER VEHICLE,PASSENGER VEHICLE,PASSENGER VEHICLE,
01/23/2013,17:45,STATEN ISLAND,10301,40.6164151,-74.1035089,"(40.6164151, -74.1035089)",VICTORY BOULEVARD               ,CLOVE ROAD                      ,,3,0,0,0,0,0,3,0,Unspecified,Unspecified,,,,286906,SPORT UTILITY / STATION WAGON,SPORT UTILITY / STATION WAGON,,,
01/23/2013,11:31,STATEN ISLAND,10304,40.6322387,-74.0871407,"(40.6322387, -74.0871407)",VICTORY BOULEVARD               ,AUSTIN PLACE                    ,,0,0,0,0,0,0,0,0,Unspecified,Unspecified,,,,286907,SPORT UTILITY / STATION WAGON,PASSENGER VEHICLE,,,
01/11/2013,12:30,STATEN ISLAND,10304,40.6235876,-74.0827706,"(40.6235876, -74.0827706)",BROAD STREET                    ,GORDON STREET                   ,,0,0,0,0,0,0,0,0,Unspecified,Unspecified,,,,286909,PASSENGER VEHICLE,PASSENGER VEHICLE,,,
01/24/2013,9:00,STATEN ISLAND,10301,40.6439223,-74.0727351,"(40.6439223, -74.0727351)",,,P/L 1 RICHMOND TERRACE                  ,0,0,0,0,0,0,0,0,Unspecified,Unspecified,,,,286910,SPORT UTILITY / STATION WAGON,UNKNOWN,,,
01/24/2013,15:05,STATEN ISLAND,10303,40.6215643,-74.1684829,"(40.6215643, -74.1684829)",GOETHALS ROAD NORTH             ,SOUTH AVENUE                    ,,0,0,0,0,0,0,0,0,Unspecified,Unspecified,,,,286911,PASSENGER VEHICLE,PASSENGER VEHICLE,,,
01/24/2013,8:37,STATEN ISLAND,10301,40.6440727,-74.0777656,"(40.6440727, -74.0777656)",WALL STREET                     ,STUYVESANT PLACE                ,,0,0,0,0,0,0,0,0,Unspecified,Unspecified,,,,286912,PASSENGER VEHICLE,PASSENGER VEHICLE,,,
01/24/2013,9:20,STATEN ISLAND,10310,40.6317102,-74.1166647,"(40.6317102, -74.1166647)",SENECA STREET                   ,BROADWAY                        ,,0,0,0,0,0,0,0,0,Unspecified,Unspecified,,,,286913,PASSENGER VEHICLE,PASSENGER VEHICLE,,,
01/22/2013,18:52,STATEN ISLAND,10303,40.6255987,-74.1531322,"(40.6255987, -74.1531322)",FOREST AVENUE                   ,SIMONSON AVENUE                 ,,1,0,1,0,0,0,0,0,Unspecified,,,,,286915,PASSENGER VEHICLE,,,,
01/22/2013,20:58,STATEN ISLAND,10303,40.6255012,-74.1521378,"(40.6255012, -74.1521378)",FOREST AVENUE                   ,LAKE AVENUE                     ,,0,0,0,0,0,0,0,0,Unspecified,Unspecified,,,,286916,PASSENGER VEHICLE,PASSENGER VEHICLE,,,
01/24/2013,19:10,STATEN ISLAND,10303,40.6249126,-74.1467004,"(40.6249126, -74.1467004)",FOREST AVENUE                   ,WILLOW ROAD WEST                ,,0,0,0,0,0,0,0,0,Unspecified,Unspecified,,,,286918,PASSENGER VEHICLE,SPORT UTILITY / STATION WAGON,,,
01/24/2013,16:30,STATEN ISLAND,10302,40.6386347,-74.139409,"(40.6386347, -74.139409)",NICHOLAS AVENUE                 ,PORT LANE                       ,,0,0,0,0,0,0,0,0,Driver Inattention/Distraction,Driver Inattention/Distraction,,,,286919,PICK-UP TRUCK,PASSENGER VEHICLE,,,
01/24/2013,16:43,STATEN ISLAND,10305,40.6043968,-74.0689971,"(40.6043968, -74.0689971)",NARROWS ROAD NORTH              ,FINGERBOARD ROAD                ,,0,0,0,0,0,0,0,0,Failure to Yield Right-of-Way,Oversized Vehicle,,,,286920,PASSENGER VEHICLE,FIRE TRUCK,,,
01/24/2013,15:45,STATEN ISLAND,10301,40.6366233,-74.0817779,"(40.6366233, -74.0817779)",VICTORY BOULEVARD               ,FIEDLER AVENUE                  ,,0,0,0,0,0,0,0,0,Unspecified,Unspecified,,,,286921,PASSENGER VEHICLE,PASSENGER VEHICLE,,,
01/24/2013,22:12,STATEN ISLAND,10301,40.6317239,-74.09592,"(40.6317239, -74.09592)",SILVER LAKE PARK ROAD           ,FOREST AVENUE                   ,,0,0,0,0,0,0,0,0,Unspecified,Unspecified,,,,286922,PASSENGER VEHICLE,PASSENGER VEHICLE,,,
01/24/2013,17:45,STATEN ISLAND,10314,40.6167402,-74.1432606,"(40.6167402, -74.1432606)",WATCHOGUE ROAD                  ,COLLFIELD AVENUE                ,,0,0,0,0,0,0,0,0,View Obstructed/Limited,Unspecified,,,,286923,PASSENGER VEHICLE,PASSENGER VEHICLE,,,
01/24/2013,8:05,STATEN ISLAND,10301,40.6265453,-74.0915823,"(40.6265453, -74.0915823)",VICTORY BOULEVARD               ,EDDY STREET                     ,,0,0,0,0,0,0,0,0,Unspecified,Unspecified,Unspecified,,,286924,PASSENGER VEHICLE,PASSENGER VEHICLE,SPORT UTILITY / STATION WAGON,,
01/25/2013,0:01,STATEN ISLAND,10303,40.6267061,-74.1622131,"(40.6267061, -74.1622131)",,,P/L 2178 FOREST AVENUE                  ,0,0,0,0,0,0,0,0,Unspecified,Unspecified,,,,286925,PASSENGER VEHICLE,SPORT UTILITY / STATION WAGON,,,
01/25/2013,4:30,STATEN ISLAND,10314,40.6101723,-74.1214496,"(40.6101723, -74.1214496)",NORTH GANNON AVENUE             ,MANOR ROAD                      ,,2,0,0,0,0,0,2,0,Brakes Defective,Unspecified,,,,286926,PASSENGER VEHICLE,TAXI,,,
01/25/2013,7:30,STATEN ISLAND,10302,40.6365096,-74.1329984,"(40.6365096, -74.1329984)",NEW STREET                      ,PARK AVENUE                     ,,0,0,0,0,0,0,0,0,Unspecified,Unspecified,,,,286927,SPORT UTILITY / STATION WAGON,PASSENGER VEHICLE,,,
01/25/2013,8:30,STATEN ISLAND,10314,40.6182943,-74.1313556,"(40.6182943, -74.1313556)",KEIBER COURT                    ,JEWETT AVENUE                   ,,0,0,0,0,0,0,0,0,Unspecified,Unspecified,,,,286928,UNKNOWN,PASSENGER VEHICLE,,,
01/25/2013,9:45,STATEN ISLAND,10302,40.6321208,-74.1328311,"(40.6321208, -74.1328311)",POST AVENUE                     ,DECKER AVENUE                   ,,0,0,0,0,0,0,0,0,Unspecified,Unspecified,,,,286929,PASSENGER VEHICLE,SPORT UTILITY / STATION WAGON,,,
01/25/2013,14:30,STATEN ISLAND,10305,40.6072699,-74.0745139,"(40.6072699, -74.0745139)",COLTON STREET                   ,ST JOHNS AVENUE                 ,,0,0,0,0,0,0,0,0,Unspecified,Unspecified,,,,286930,SMALL COM VEH(4 TIRES) ,OTHER,,,
01/25/2013,13:42,STATEN ISLAND,10314,40.6203105,-74.1623704,"(40.6203105, -74.1623704)",ELSON COURT                     ,REGIS DRIVE                     ,,1,0,0,0,0,0,1,0,Unspecified,Unspecified,,,,286931,SPORT UTILITY / STATION WAGON,PASSENGER VEHICLE,,,
01/25/2013,12:49,STATEN ISLAND,10310,40.6340306,-74.1235646,"(40.6340306, -74.1235646)",,,P/L 1234 CASTLETON AVENUE               ,0,0,0,0,0,0,0,0,Unspecified,Unspecified,,,,286932,SPORT UTILITY / STATION WAGON,PASSENGER VEHICLE,,,
01/25/2013,15:13,STATEN ISLAND,10302,40.6307436,-74.139288,"(40.6307436, -74.139288)",PORT RICHMOND AVENUE            ,LAFORGE AVENUE                  ,,0,0,0,0,0,0,0,0,Unspecified,Unspecified,,,,286933,PICK-UP TRUCK,SPORT UTILITY / STATION WAGON,,,
01/25/2013,18:00,STATEN ISLAND,10304,40.6144729,-74.0777311,"(40.6144729, -74.0777311)",SKY LANE                        ,SKYLINE DRIVE                   ,,0,0,0,0,0,0,0,0,Unspecified,Unspecified,,,,286934,UNKNOWN,UNKNOWN,,,
01/25/2013,17:32,STATEN ISLAND,10301,40.6464578,-74.0892962,"(40.6464578, -74.0892962)",RICHMOND TERRACE                ,YORK AVENUE                     ,,2,0,0,0,0,0,2,0,Unspecified,,,,,286935,PASSENGER VEHICLE,,,,
01/25/2013,19:30,STATEN ISLAND,10305,40.607758,-74.0614627,"(40.607758, -74.0614627)",BAY STREET                      ,LYMAN AVENUE                    ,,1,0,0,0,0,0,1,0,Unspecified,,,,,286936,SPORT UTILITY / STATION WAGON,,,,
01/26/2013,5:00,STATEN ISLAND,10301,40.644811,-74.0959676,"(40.644811, -74.0959676)",RICHMOND TERRACE                ,LAFAYETTE AVENUE                ,,2,0,0,0,0,0,2,0,Unspecified,,,,,286937,PASSENGER VEHICLE,,,,
01/25/2013,17:15,STATEN ISLAND,10304,40.6322387,-74.0871407,"(40.6322387, -74.0871407)",VICTORY BOULEVARD               ,AUSTIN PLACE                    ,,1,0,1,0,0,0,0,0,Unspecified,,,,,286938,PASSENGER VEHICLE,,,,
01/25/2013,20:10,STATEN ISLAND,10304,40.6322798,-74.0834371,"(40.6322798, -74.0834371)",WARD AVENUE                     ,CEBRA AVENUE                    ,,1,0,0,0,0,0,1,0,Unspecified,Unspecified,,,,286939,SPORT UTILITY / STATION WAGON,PASSENGER VEHICLE,,,
01/25/2013,20:00,STATEN ISLAND,10304,40.6232519,-74.0838257,"(40.6232519, -74.0838257)",TARGEE STREET                   ,BROAD STREET                    ,,0,0,0,0,0,0,0,0,Unspecified,Unspecified,,,,286940,PASSENGER VEHICLE,SPORT UTILITY / STATION WAGON,,,
01/25/2013,20:30,STATEN ISLAND,10310,40.6236826,-74.104255,"(40.6236826, -74.104255)",BARD AVENUE                     ,HERKIMER STREET                 ,,0,0,0,0,0,0,0,0,Unspecified,,,,,286941,SPORT UTILITY / STATION WAGON,,,,
01/26/2013,0:45,STATEN ISLAND,10302,40.6360667,-74.1361249,"(40.6360667, -74.1361249)",CASTLETON AVENUE                ,FABER STREET                    ,,0,0,0,0,0,0,0,0,Unspecified,Unspecified,Unspecified,,,286942,PASSENGER VEHICLE,PASSENGER VEHICLE,PASSENGER VEHICLE,,
01/26/2013,12:35,STATEN ISLAND,10303,40.6220781,-74.1681419,"(40.6220781, -74.1681419)",SOUTH AVENUE                    ,REGAL WALK                      ,,0,0,0,0,0,0,0,0,Unspecified,,,,,286943,PASSENGER VEHICLE,,,,
01/26/2013,14:20,STATEN ISLAND,10301,40.6354856,-74.0909064,"(40.6354856, -74.0909064)",BRIGHTON AVENUE                 ,GLEN AVENUE                     ,,0,0,0,0,0,0,0,0,Unspecified,Unspecified,,,,286944,SPORT UTILITY / STATION WAGON,PASSENGER VEHICLE,,,
01/26/2013,10:10,STATEN ISLAND,10302,40.6343237,-74.1384776,"(40.6343237, -74.1384776)",,,D/W 212 TREADWELL AVENUE                ,0,0,0,0,0,0,0,0,Unspecified,Unspecified,Unspecified,,,286945,PICK-UP TRUCK,SPORT UTILITY / STATION WAGON,SPORT UTILITY / STATION WAGON,,
01/26/2013,12:00,STATEN ISLAND,10301,40.6326723,-74.0755798,"(40.6326723, -74.0755798)",,,P/L 385 BAY STREET                      ,0,0,0,0,0,0,0,0,Unspecified,Unspecified,,,,286946,PASSENGER VEHICLE,SPORT UTILITY / STATION WAGON,,,
01/26/2013,19:30,STATEN ISLAND,10301,40.6326723,-74.0755798,"(40.6326723, -74.0755798)",,,P/L 385 BAY STREET                      ,0,0,0,0,0,0,0,0,Unspecified,Unspecified,,,,286947,VAN,SPORT UTILITY / STATION WAGON,,,
01/26/2013,17:00,STATEN ISLAND,10314,40.6203105,-74.1623704,"(40.6203105, -74.1623704)",REGIS DRIVE                     ,ELSON COURT                     ,,1,0,0,0,0,0,1,0,Unspecified,Unspecified,,,,286948,PASSENGER VEHICLE,PASSENGER VEHICLE,,,
01/26/2013,15:50,STATEN ISLAND,10314,40.6135258,-74.1168418,"(40.6135258, -74.1168418)",SLOSSON AVENUE                  ,VICTORY BOULEVARD               ,,1,0,0,0,0,0,1,0,Unspecified,,,,,286949,SPORT UTILITY / STATION WAGON,,,,
01/26/2013,22:25,STATEN ISLAND,10314,40.612156,-74.1169402,"(40.612156, -74.1169402)",WINDSOR ROAD                    ,SLOSSON AVENUE                  ,,0,0,0,0,0,0,0,0,Unspecified,Unspecified,,,,286950,SPORT UTILITY / STATION WAGON,SPORT UTILITY / STATION WAGON,,,
01/26/2013,18:00,STATEN ISLAND,10304,40.6094024,-74.0901074,"(40.6094024, -74.0901074)",NARROWS ROAD NORTH              ,RICHMOND ROAD                   ,,0,0,0,0,0,0,0,0,Unspecified,Unspecified,,,,286951,SPORT UTILITY / STATION WAGON,SPORT UTILITY / STATION WAGON,,,
01/26/2013,16:30,STATEN ISLAND,10304,40.6266639,-74.0756451,"(40.6266639, -74.0756451)",CANAL STREET                    ,BAY STREET                      ,,1,0,0,0,0,0,1,0,Unspecified,,,,,286952,SPORT UTILITY / STATION WAGON,,,,
01/20/2013,13:00,STATEN ISLAND,10301,40.6425076,-74.0785133,"(40.6425076, -74.0785133)",,,P/L 306 SAINT MARKS PLACE               ,0,0,0,0,0,0,0,0,Unspecified,Unspecified,,,,286953,PASSENGER VEHICLE,UNKNOWN,,,
01/27/2013,8:22,STATEN ISLAND,10301,40.6108706,-74.1004029,"(40.6108706, -74.1004029)",LITTLE CLOVE ROAD               ,CAYUGA AVENUE                   ,,1,0,0,0,0,0,1,0,Unspecified,Unspecified,,,,286954,PASSENGER VEHICLE,PASSENGER VEHICLE,,,
01/26/2013,20:00,STATEN ISLAND,10301,40.6444685,-74.0768544,"(40.6444685, -74.0768544)",RICHMOND TERRACE                ,WALL STREET                     ,,0,0,0,0,0,0,0,0,Unspecified,Unspecified,,,,286955,PASSENGER VEHICLE,PASSENGER VEHICLE,,,
01/27/2013,21:00,STATEN ISLAND,10301,40.6185219,-74.0985917,"(40.6185219, -74.0985917)",DUDLEY AVENUE                   ,RUGBY AVENUE                    ,,0,0,0,0,0,0,0,0,Other Vehicular,Unspecified,,,,286956,SPORT UTILITY / STATION WAGON,PASSENGER VEHICLE,,,
01/27/2013,13:00,STATEN ISLAND,10301,40.6475736,-74.0874238,"(40.6475736, -74.0874238)",RICHMOND TERRACE                ,WESTERVELT AVENUE               ,,0,0,0,0,0,0,0,0,Unspecified,Unspecified,,,,286957,PASSENGER VEHICLE,UNKNOWN,,,
01/26/2013,18:30,STATEN ISLAND,10304,40.6090573,-74.0892245,"(40.6090573, -74.0892245)",NARROWS ROAD NORTH              ,RHINE AVENUE                    ,,0,0,0,0,0,0,0,0,Lost Consciousness,Unspecified,,,,286958,SPORT UTILITY / STATION WAGON,SPORT UTILITY / STATION WAGON,,,
01/27/2013,10:50,STATEN ISLAND,10301,40.6164151,-74.1035089,"(40.6164151, -74.1035089)",CLOVE ROAD                      ,VICTORY BOULEVARD               ,,0,0,0,0,0,0,0,0,Driver Inattention/Distraction,Unspecified,,,,286959,PASSENGER VEHICLE,PASSENGER VEHICLE,,,
01/28/2013,10:20,STATEN ISLAND,10314,40.6175119,-74.151554,"(40.6175119, -74.151554)",WATCHOGUE ROAD                  ,WILLOW ROAD EAST                ,,1,0,0,0,0,0,1,0,Unspecified,,,,,286960,SPORT UTILITY / STATION WAGON,,,,
01/28/2013,21:25,STATEN ISLAND,10303,40.631544,-74.1489018,"(40.631544, -74.1489018)",GRANITE AVENUE                  ,WALKER STREET                   ,,0,0,0,0,0,0,0,0,Unspecified,Unspecified,,,,286961,PASSENGER VEHICLE,PASSENGER VEHICLE,,,
01/28/2013,8:40,STATEN ISLAND,10302,40.6308856,-74.1304761,"(40.6308856, -74.1304761)",POST AVENUE                     ,JEWETT AVENUE                   ,,0,0,0,0,0,0,0,0,Unspecified,Unspecified,,,,286962,PASSENGER VEHICLE,AMBULANCE,,,
01/28/2013,15:23,STATEN ISLAND,10304,40.6172954,-74.0804791,"(40.6172954, -74.0804791)",PARK HILL AVENUE                ,OSGOOD AVENUE                   ,,0,0,0,0,0,0,0,0,Unspecified,Unspecified,,,,286963,SPORT UTILITY / STATION WAGON,PASSENGER VEHICLE,,,
01/28/2013,15:45,STATEN ISLAND,10301,40.6355832,-74.0924234,"(40.6355832, -74.0924234)",LAFAYETTE AVENUE                ,BRIGHTON AVENUE                 ,,0,0,0,0,0,0,0,0,Unspecified,Unspecified,,,,286964,SPORT UTILITY / STATION WAGON,SPORT UTILITY / STATION WAGON,,,
01/28/2013,20:30,STATEN ISLAND,10303,40.6346086,-74.1580637,"(40.6346086, -74.1580637)",UNION AVENUE                    ,FOREST COURT                    ,,0,0,0,0,0,0,0,0,Unspecified,Unspecified,,,,286966,PASSENGER VEHICLE,SPORT UTILITY / STATION WAGON,,,
01/28/2013,20:00,STATEN ISLAND,10303,40.6358001,-74.1475602,"(40.6358001, -74.1475602)",GRANITE AVENUE                  ,LASALLE STREET                  ,,0,0,0,0,0,0,0,0,Unspecified,,,,,286967,PASSENGER VEHICLE,,,,
01/28/2013,23:00,STATEN ISLAND,10314,40.6124385,-74.1323057,"(40.6124385, -74.1323057)",BRADLEY AVENUE                  ,VICTORY BOULEVARD               ,,0,0,0,0,0,0,0,0,Unspecified,Unspecified,,,,286968,PASSENGER VEHICLE,PASSENGER VEHICLE,,,
01/28/2013,15:15,STATEN ISLAND,10314,40.6116617,-74.1393598,"(40.6116617, -74.1393598)",VICTORY BOULEVARD               ,ARDMORE AVENUE                  ,,0,0,0,0,0,0,0,0,Unspecified,Unspecified,,,,286969,PASSENGER VEHICLE,UNKNOWN,,,
01/28/2013,21:42,STATEN ISLAND,10303,40.6358001,-74.1475602,"(40.6358001, -74.1475602)",GRANITE AVENUE                  ,LA SALLE STREET                 ,,1,0,0,0,0,0,1,0,Unspecified,Unspecified,,,,286970,PASSENGER VEHICLE,PASSENGER VEHICLE,,,
01/28/2013,19:00,STATEN ISLAND,10301,40.6475736,-74.0874238,"(40.6475736, -74.0874238)",WESTERVELT AVENUE               ,RICHMOND TERRACE                ,,0,0,0,0,0,0,0,0,Unspecified,Unspecified,,,,286971,UNKNOWN,PASSENGER VEHICLE,,,
01/29/2013,8:20,STATEN ISLAND,10301,40.6406861,-74.0953743,"(40.6406861, -74.0953743)",,,D/W 91 HENDERSON AVENUE                 ,0,0,0,0,0,0,0,0,Unspecified,Unspecified,,,,286972,BUS,UNKNOWN,,,
01/29/2013,17:00,STATEN ISLAND,10310,40.634567,-74.1171993,"(40.634567, -74.1171993)",BROADWAY                        ,CASTLETON AVENUE                ,,0,0,0,0,0,0,0,0,Unspecified,Unspecified,,,,286973,SPORT UTILITY / STATION WAGON,VAN,,,
01/29/2013,10:30,STATEN ISLAND,10310,40.6264954,-74.1049115,"(40.6264954, -74.1049115)",BIRCH AVENUE                    ,BARD AVENUE                     ,,0,0,0,0,0,0,0,0,Unspecified,Unspecified,,,,286974,PASSENGER VEHICLE,PASSENGER VEHICLE,,,
01/29/2013,7:45,STATEN ISLAND,10310,40.6278785,-74.1052415,"(40.6278785, -74.1052415)",BARD AVENUE                     ,HARVEST AVENUE                  ,,0,0,0,0,0,0,0,0,Unspecified,Unspecified,,,,286975,PASSENGER VEHICLE,SPORT UTILITY / STATION WAGON,,,
01/29/2013,7:30,STATEN ISLAND,10314,40.612156,-74.1169402,"(40.612156, -74.1169402)",WINDSOR ROAD                    ,SLOSSEN AVENUE                  ,,0,0,0,0,0,0,0,0,Unspecified,Unspecified,,,,286976,SPORT UTILITY / STATION WAGON,SPORT UTILITY / STATION WAGON,,,
01/29/2013,10:30,STATEN ISLAND,10304,40.6339552,-74.0857486,"(40.6339552, -74.0857486)",CEBRA AVENUE                    ,VICTORY BOULEVARD               ,,1,0,1,0,0,0,0,0,Unspecified,,,,,286977,SPORT UTILITY / STATION WAGON,,,,
01/29/2013,17:16,STATEN ISLAND,10310,40.6333738,-74.110903,"(40.6333738, -74.110903)",OAKLAND AVENUE                  ,CARY AVENUE                     ,,1,0,1,0,0,0,0,0,Unspecified,,,,,286978,PASSENGER VEHICLE,,,,
01/29/2013,19:30,STATEN ISLAND,10304,40.6282609,-74.0803807,"(40.6282609, -74.0803807)",VAN DUZER STREET                ,WRIGHT STREET                   ,,0,0,0,0,0,0,0,0,Unspecified,Unspecified,,,,286979,SPORT UTILITY / STATION WAGON,UNKNOWN,,,
01/25/2013,12:30,STATEN ISLAND,10302,40.6321208,-74.1328311,"(40.6321208, -74.1328311)",POST AVENUE                     ,DECKER AVENUE                   ,,2,0,0,0,0,0,2,0,Fatigued/Drowsy,Unspecified,Unspecified,Unspecified,,286980,PASSENGER VEHICLE,PASSENGER VEHICLE,PASSENGER VEHICLE,SPORT UTILITY / STATION WAGON,
01/20/2013,14:00,STATEN ISLAND,10302,40.6244389,-74.1368901,"(40.6244389, -74.1368901)",,,P/L 1481 FOREST AVENUE                  ,0,0,0,0,0,0,0,0,Unspecified,Unspecified,,,,286981,SPORT UTILITY / STATION WAGON,UNKNOWN,,,
01/30/2013,6:45,STATEN ISLAND,10303,40.6372486,-74.160412,"(40.6372486, -74.160412)",,,P/L 3014 RICHMOND TERRACE               ,0,0,0,0,0,0,0,0,Unspecified,Unspecified,,,,286982,SPORT UTILITY / STATION WAGON,SPORT UTILITY / STATION WAGON,,,
01/30/2013,5:30,STATEN ISLAND,10310,40.6333513,-74.1169594,"(40.6333513, -74.1169594)",SOUTH STREET                    ,BROADWAY                        ,,0,0,0,0,0,0,0,0,Unspecified,Unspecified,,,,286983,VAN,SPORT UTILITY / STATION WAGON,,,
01/29/2013,20:30,STATEN ISLAND,10301,40.6108889,-74.1014113,"(40.6108889, -74.1014113)",SENECA AVENUE                   ,LITTLE CLOVE ROAD               ,,0,0,0,0,0,0,0,0,Unspecified,Unspecified,,,,286984,PASSENGER VEHICLE,PASSENGER VEHICLE,,,
01/30/2013,12:20,STATEN ISLAND,10305,40.6036253,-74.0693024,"(40.6036253, -74.0693024)",FINGERBOARD ROAD                ,VERRAZANO BRIDGE APPROACH       ,,0,0,0,0,0,0,0,0,Unspecified,Unspecified,,,,286985,PASSENGER VEHICLE,VAN,,,
01/30/2013,16:35,STATEN ISLAND,10305,40.6141438,-74.0686182,"(40.6141438, -74.0686182)",CLIFTON AVENUE                  ,ANDERSON STREET                 ,,1,0,1,0,0,0,0,0,Unspecified,,,,,286986,PASSENGER VEHICLE,,,,
01/30/2013,18:30,STATEN ISLAND,10304,40.6339552,-74.0857486,"(40.6339552, -74.0857486)",VICTORY BOULEVARD               ,CEBRA AVENUE                    ,,0,0,0,0,0,0,0,0,Failure to Yield Right-of-Way,Unspecified,,,,286987,PASSENGER VEHICLE,PASSENGER VEHICLE,,,
01/30/2013,22:30,STATEN ISLAND,10310,40.6428925,-74.113852,"(40.6428925, -74.113852)",RICHMOND TERRACE                ,BEMENT AVENUE                   ,,0,0,0,0,0,0,0,0,Driver Inexperience,Unspecified,,,,286988,PASSENGER VEHICLE,PASSENGER VEHICLE,,,
01/30/2013,8:39,STATEN ISLAND,10310,40.645129,-74.1087172,"(40.645129, -74.1087172)",RICHMOND TERRACE                ,BARD AVENUE                     ,,3,0,0,0,0,0,3,0,Unspecified,Unspecified,Unspecified,,,286989,PASSENGER VEHICLE,SPORT UTILITY / STATION WAGON,UNKNOWN,,
01/30/2013,16:00,STATEN ISLAND,10305,40.60503,-74.0657385,"(40.60503, -74.0657385)",SCHOOL ROAD                     ,TOMPKINS AVENUE                 ,,0,0,0,0,0,0,0,0,Turning Improperly,Unspecified,,,,286990,LARGE COM VEH(6 OR MORE TIRES),PASSENGER VEHICLE,,,
01/30/2013,18:10,STATEN ISLAND,10301,40.6354856,-74.0909064,"(40.6354856, -74.0909064)",BRIGHTON AVENUE                 ,GLEN AVENUE                     ,,0,0,0,0,0,0,0,0,Failure to Yield Right-of-Way,Unspecified,,,,286991,SPORT UTILITY / STATION WAGON,PASSENGER VEHICLE,,,
01/30/2013,17:20,STATEN ISLAND,10301,40.6120334,-74.1104209,"(40.6120334, -74.1104209)",LITTLE CLOVE ROAD               ,AYMAR AVENUE                    ,,0,0,0,0,0,0,0,0,Driver Inattention/Distraction,Unspecified,,,,286992,SPORT UTILITY / STATION WAGON,PASSENGER VEHICLE,,,
01/30/2013,16:30,STATEN ISLAND,10314,40.6184032,-74.1195987,"(40.6184032, -74.1195987)",UTTER AVENUE                    ,FAIRVIEW AVENUE                 ,,0,0,0,0,0,0,0,0,Unspecified,Unspecified,,,,286993,PASSENGER VEHICLE,PASSENGER VEHICLE,,,
01/31/2013,12:15,STATEN ISLAND,10305,40.6140876,-74.0661328,"(40.6140876, -74.0661328)",BAY STREET                      ,HYLAN BOULEVARD                 ,,0,0,0,0,0,0,0,0,Unspecified,Unspecified,,,,286994,PASSENGER VEHICLE,UNKNOWN,,,
01/31/2013,8:00,STATEN ISLAND,10303,40.6321651,-74.1663299,"(40.6321651, -74.1663299)",SOUTH AVENUE                    ,BRABANT STREET                  ,,0,0,0,0,0,0,0,0,Unspecified,,,,,286995,BUS,,,,
01/31/2013,10:05,STATEN ISLAND,10310,40.6374659,-74.1246051,"(40.6374659, -74.1246051)",RICHMOND TERRACE                ,DONGAN STREET                   ,,3,0,0,0,0,0,3,0,Unspecified,Unspecified,,,,286996,SPORT UTILITY / STATION WAGON,PASSENGER VEHICLE,,,
01/31/2013,14:30,STATEN ISLAND,10302,40.6249577,-74.1457675,"(40.6249577, -74.1457675)",WILLOW ROAD EAST                ,FOREST AVENUE                   ,,0,0,0,0,0,0,0,0,Unspecified,Unspecified,,,,286997,PICK-UP TRUCK,PASSENGER VEHICLE,,,
01/31/2013,18:47,STATEN ISLAND,10301,40.6406001,-74.0822836,"(40.6406001, -74.0822836)",HENDRICKS AVENUE                ,WESTERVELT AVENUE               ,,1,0,1,0,0,0,0,0,Unspecified,,,,,286998,UNKNOWN,,,,
01/31/2013,18:45,STATEN ISLAND,10314,40.6080888,-74.1409262,"(40.6080888, -74.1409262)",WOOLLEY AVENUE                  ,NORTH GANNON AVENUE             ,,0,0,0,0,0,0,0,0,Unspecified,Unspecified,,,,286999,PASSENGER VEHICLE,PASSENGER VEHICLE,,,
01/31/2013,18:45,STATEN ISLAND,10304,40.6087258,-74.0883777,"(40.6087258, -74.0883777)",NARROWS ROAD NORTH              ,TARGEE STREET                   ,,0,0,0,0,0,0,0,0,Unspecified,,,,,287000,PASSENGER VEHICLE,BUS,,,
01/31/2013,17:55,STATEN ISLAND,10304,40.6228007,-74.0852516,"(40.6228007, -74.0852516)",BROAD STREET                    ,VANDUZER STREET                 ,,0,0,0,0,0,0,0,0,Unspecified,,,,,287001,PASSENGER VEHICLE,,,,
01/31/2013,16:15,STATEN ISLAND,10303,40.6262181,-74.1578241,"(40.6262181, -74.1578241)",FOREST AVENUE                   ,UNION AVENUE                    ,,0,0,0,0,0,0,0,0,Lost Consciousness,Backing Unsafely,,,,287002,PASSENGER VEHICLE,SPORT UTILITY / STATION WAGON,,,
01/31/2013,16:15,STATEN ISLAND,10303,40.6251048,-74.1487686,"(40.6251048, -74.1487686)",FOREST AVENUE                   ,MORNINGSTAR ROAD                ,,0,0,0,0,0,0,0,0,Failure to Yield Right-of-Way,Unspecified,,,,287003,SPORT UTILITY / STATION WAGON,PASSENGER VEHICLE,,,
02/01/2013,3:30,STATEN ISLAND,10305,40.6065969,-74.0753955,"(40.6065969, -74.0753955)",NARROWS ROAD NORTH              ,SAINT JOHNS AVENUE              ,,0,0,0,0,0,0,0,0,Unspecified,Unspecified,,,,287004,PASSENGER VEHICLE,PASSENGER VEHICLE,,,
02/01/2013,12:40,STATEN ISLAND,10304,40.6339552,-74.0857486,"(40.6339552, -74.0857486)",VICTORY BOULEVARD               ,CEBRA AVENUE                    ,,0,0,0,0,0,0,0,0,Unspecified,Unspecified,,,,287005,SPORT UTILITY / STATION WAGON,PASSENGER VEHICLE,,,
02/01/2013,14:30,STATEN ISLAND,10301,40.6111816,-74.1055969,"(40.6111816, -74.1055969)",LITTLE CLOVE ROAD               ,RENWICK AVENUE                  ,,0,0,0,0,0,0,0,0,Unspecified,Unspecified,,,,287006,PASSENGER VEHICLE,UNKNOWN,,,
02/01/2013,15:16,STATEN ISLAND,10301,40.6373213,-74.0805501,"(40.6373213, -74.0805501)",BROOK STREET                    ,VICTORY BOULEVARD               ,,1,0,1,0,0,0,0,0,Unspecified,,,,,287007,PICK-UP TRUCK,,,,
02/01/2013,11:00,STATEN ISLAND,10314,40.6116976,-74.1391798,"(40.6116976, -74.1391798)",HARVEY AVENUE                   ,VICTORY BOULEVARD               ,,0,0,0,0,0,0,0,0,Unspecified,Unspecified,,,,287008,SPORT UTILITY / STATION WAGON,PASSENGER VEHICLE,,,
02/01/2013,15:45,STATEN ISLAND,10301,40.6258997,-74.0887211,"(40.6258997, -74.0887211)",HOWARD AVENUE                   ,EDDY STREET                     ,,1,0,0,0,0,0,1,0,Unspecified,,,,,287009,SPORT UTILITY / STATION WAGON,,,,
02/01/2013,23:50,STATEN ISLAND,10310,40.6326762,-74.1168357,"(40.6326762, -74.1168357)",BROADWAY                        ,CARY AVENUE                     ,,1,0,0,0,0,0,1,0,Unspecified,Unspecified,,,,287012,LIVERY VEHICLE,PASSENGER VEHICLE,,,
02/02/2013,3:30,STATEN ISLAND,10301,40.6308667,-74.1032323,"(40.6308667, -74.1032323)",,,P/L 415 FOREST AVENUE                   ,0,0,0,0,0,0,0,0,Lost Consciousness,Unspecified,,,,287013,LARGE COM VEH(6 OR MORE TIRES),PASSENGER VEHICLE,,,
02/02/2013,14:17,STATEN ISLAND,10301,40.644811,-74.0959676,"(40.644811, -74.0959676)",LAFAYETTE AVENUE                ,RICHMOND TERRACE                ,,0,0,0,0,0,0,0,0,Outside Car Distraction,Unspecified,,,,287014,PASSENGER VEHICLE,PASSENGER VEHICLE,,,
02/01/2013,22:10,STATEN ISLAND,10301,40.6317239,-74.09592,"(40.6317239, -74.09592)",FOREST AVENUE                   ,SILVER LAKE PARK ROAD           ,,0,0,0,0,0,0,0,0,Unspecified,,,,,287015,UNKNOWN,,,,
02/01/2013,9:20,STATEN ISLAND,10310,40.6256757,-74.1233258,"(40.6256757, -74.1233258)",,,D/W 204 RAYMOND PLACE                   ,0,0,0,0,0,0,0,0,Unspecified,,,,,287016,SPORT UTILITY / STATION WAGON,,,,
02/02/2013,12:45,STATEN ISLAND,10303,40.6265706,-74.1667699,"(40.6265706, -74.1667699)",WEMPLE STREET                   ,SOUTH AVENUE                    ,,0,0,0,0,0,0,0,0,Unspecified,Unspecified,,,,287017,SPORT UTILITY / STATION WAGON,SPORT UTILITY / STATION WAGON,,,
02/02/2013,12:00,STATEN ISLAND,10302,40.6259569,-74.1344507,"(40.6259569, -74.1344507)",,,P/L 1351 FOREST AVENUE                  ,1,0,1,0,0,0,0,0,Unspecified,,,,,287018,PASSENGER VEHICLE,,,,
01/25/2013,20:52,STATEN ISLAND,10301,40.646612,-74.0810911,"(40.646612, -74.0810911)",NICHOLAS STREET                 ,CARROLL PLACE                   ,,0,0,0,0,0,0,0,0,Unspecified,Unspecified,Unspecified,,,287019,PASSENGER VEHICLE,SPORT UTILITY / STATION WAGON,PASSENGER VEHICLE,,
02/02/2013,0:20,STATEN ISLAND,10304,40.617789,-74.0811029,"(40.617789, -74.0811029)",VANDERBILT AVENUE               ,OSGOOD AVENUE                   ,,0,0,0,0,0,0,0,0,Unspecified,Unspecified,,,,287020,PASSENGER VEHICLE,UNKNOWN,,,
02/03/2013,1:55,STATEN ISLAND,10314,40.6096259,-74.1495445,"(40.6096259, -74.1495445)",NORTH GANNON AVENUE             ,VICTORY BOULEVARD               ,,0,0,0,0,0,0,0,0,Unspecified,Unspecified,,,,287021,SPORT UTILITY / STATION WAGON,PASSENGER VEHICLE,,,
02/03/2013,21:02,STATEN ISLAND,10303,40.6371447,-74.1601631,"(40.6371447, -74.1601631)",HARBOR ROAD                     ,RICHMOND TERRACE                ,,0,0,0,0,0,0,0,0,Unspecified,Unspecified,,,,287022,PASSENGER VEHICLE,PASSENGER VEHICLE,,,
02/03/2013,14:36,STATEN ISLAND,10303,40.6244199,-74.1659036,"(40.6244199, -74.1659036)",BIRCH ROAD                      ,BRIARWOOD ROAD                  ,,0,0,0,0,0,0,0,0,Unspecified,Unspecified,,,,287023,SPORT UTILITY / STATION WAGON,PASSENGER VEHICLE,,,
02/03/2013,12:35,STATEN ISLAND,10310,40.6347404,-74.1111755,"(40.6347404, -74.1111755)",OAKLAND AVENUE                  ,CASTLETON AVENUE                ,,0,0,0,0,0,0,0,0,Unspecified,Unspecified,,,,287024,SPORT UTILITY / STATION WAGON,PASSENGER VEHICLE,,,
02/03/2013,17:08,STATEN ISLAND,10314,40.6229081,-74.1494409,"(40.6229081, -74.1494409)",,,P/L 985 RICHMOND AVE                    ,0,0,0,0,0,0,0,0,Unspecified,Unspecified,,,,287025,SPORT UTILITY / STATION WAGON,PASSENGER VEHICLE,,,
02/03/2013,22:00,STATEN ISLAND,10303,40.6371447,-74.1601631,"(40.6371447, -74.1601631)",HARBOR ROAD                     ,RICHMOND TERRACE                ,,1,0,1,0,0,0,0,0,Alcohol Involvement,,,,,287026,PASSENGER VEHICLE,,,,
02/03/2013,15:40,STATEN ISLAND,10302,40.6257727,-74.1347314,"(40.6257727, -74.1347314)",FOREST AVENUE                   ,VELTMAN AVENUE                  ,,0,0,0,0,0,0,0,0,Outside Car Distraction,Unspecified,,,,287027,PASSENGER VEHICLE,PASSENGER VEHICLE,,,
02/03/2013,18:15,STATEN ISLAND,10302,40.6342532,-74.1330983,"(40.6342532, -74.1330983)",ANDERSON AVENUE                 ,HEBERTON AVENUE                 ,,0,0,0,0,0,0,0,0,Alcohol Involvement,Unspecified,,,,287028,SPORT UTILITY / STATION WAGON,PASSENGER VEHICLE,,,
02/04/2013,15:00,STATEN ISLAND,10301,40.6164151,-74.1035089,"(40.6164151, -74.1035089)",VICTORY BOULEVARD               ,CLOVE ROAD                      ,,0,0,0,0,0,0,0,0,Unspecified,Unspecified,,,,287030,PASSENGER VEHICLE,PASSENGER VEHICLE,,,
02/04/2013,12:44,STATEN ISLAND,10303,40.6263377,-74.1586926,"(40.6263377, -74.1586926)",,,P/L 2079 FOREST AVE                     ,0,0,0,0,0,0,0,0,Unspecified,Unspecified,,,,287032,PASSENGER VEHICLE,UNKNOWN,,,
02/04/2013,14:00,STATEN ISLAND,10301,40.6308059,-74.1036825,"(40.6308059, -74.1036825)",FOREST AVENUE                   ,KISSEL AVENUE                   ,,0,0,0,0,0,0,0,0,Unspecified,Unspecified,,,,287033,PASSENGER VEHICLE,PASSENGER VEHICLE,,,
02/04/2013,10:26,STATEN ISLAND,10310,40.631729,-74.1248934,"(40.631729, -74.1248934)",CLOVE ROAD                      ,POST AVENUE                     ,,0,0,0,0,0,0,0,0,Unspecified,Unspecified,,,,287034,VAN,SPORT UTILITY / STATION WAGON,,,
02/04/2013,9:00,STATEN ISLAND,10304,40.6079647,-74.0857909,"(40.6079647, -74.0857909)",,,D/W 436 HANOVER AVE                     ,0,0,0,0,0,0,0,0,Unspecified,Unspecified,,,,287035,SPORT UTILITY / STATION WAGON,SPORT UTILITY / STATION WAGON,,,
02/04/2013,19:30,STATEN ISLAND,10301,40.6365613,-74.0761787,"(40.6365613, -74.0761787)",BAY STREET                      ,MINTHORNE STREET                ,,0,0,0,0,0,0,0,0,Unspecified,Unspecified,,,,287036,PASSENGER VEHICLE,VAN,,,
02/04/2013,16:30,STATEN ISLAND,10301,40.6159667,-74.1045599,"(40.6159667, -74.1045599)",VICTORY BOULEVARD               ,SENECA AVENUE                   ,,0,0,0,0,0,0,0,0,Fatigued/Drowsy,Unspecified,Unspecified,,,287037,SPORT UTILITY / STATION WAGON,SPORT UTILITY / STATION WAGON,SPORT UTILITY / STATION WAGON,,
02/04/2013,9:00,STATEN ISLAND,10314,40.616363,-74.1567562,"(40.616363, -74.1567562)",RICHMOND AVENUE                 ,WEST CASWELL AVENUE             ,,2,0,0,0,0,0,2,0,Unspecified,Unspecified,Unspecified,,,287038,SPORT UTILITY / STATION WAGON,PASSENGER VEHICLE,SPORT UTILITY / STATION WAGON,,
02/05/2013,8:30,STATEN ISLAND,10303,40.6354596,-74.1455634,"(40.6354596, -74.1455634)",MORNINGSTAR ROAD                ,LASALLE STREET                  ,,0,0,0,0,0,0,0,0,Unspecified,Unspecified,,,,287039,LARGE COM VEH(6 OR MORE TIRES),PASSENGER VEHICLE,,,
02/05/2013,12:15,STATEN ISLAND,10304,40.6296221,-74.0766644,"(40.6296221, -74.0766644)",BAY STREET                      ,WAVE STREET                     ,,0,0,0,0,0,0,0,0,Unspecified,Unspecified,,,,287040,PASSENGER VEHICLE,PASSENGER VEHICLE,,,
02/05/2013,8:00,STATEN ISLAND,10314,40.6155977,-74.1171948,"(40.6155977, -74.1171948)",SLOSSON AVENUE                  ,KNOX PLACE                      ,,0,0,0,0,0,0,0,0,Unspecified,Unspecified,Unspecified,,,287041,PASSENGER VEHICLE,PASSENGER VEHICLE,PASSENGER VEHICLE,,
02/05/2013,11:30,STATEN ISLAND,10310,40.634708,-74.1077382,"(40.634708, -74.1077382)",CASTLETON AVENUE                ,NORTH MADA AVENUE               ,,1,0,0,0,0,0,1,0,Unspecified,Unspecified,,,,287042,SPORT UTILITY / STATION WAGON,PASSENGER VEHICLE,,,
02/05/2013,21:25,STATEN ISLAND,10305,40.6136562,-74.0669932,"(40.6136562, -74.0669932)",HYLAN BOULEVARD                 ,ROSEBANK PLACE                  ,,0,0,0,0,0,0,0,0,Unspecified,Unspecified,,,,287043,PASSENGER VEHICLE,PASSENGER VEHICLE,,,
02/05/2013,18:26,STATEN ISLAND,10301,40.6380944,-74.0778992,"(40.6380944, -74.0778992)",MONTGOMERY AVENUE               ,VICTORY BOULEVARD               ,,1,0,1,0,0,0,0,0,Unspecified,,,,,287044,PASSENGER VEHICLE,,,,
02/05/2013,16:30,STATEN ISLAND,10304,40.6213949,-74.0822023,"(40.6213949, -74.0822023)",WARREN STREET                   ,FULTON STREET                   ,,0,0,0,0,0,0,0,0,Unspecified,Unspecified,,,,287045,SPORT UTILITY / STATION WAGON,UNKNOWN,,,
02/05/2013,16:30,STATEN ISLAND,10301,40.6359357,-74.0758465,"(40.6359357, -74.0758465)",HANNAH STREET                   ,BAY STREET                      ,,0,0,0,0,0,0,0,0,Unspecified,Unspecified,,,,287046,PASSENGER VEHICLE,PASSENGER VEHICLE,,,
02/05/2013,21:13,STATEN ISLAND,10304,40.6216532,-74.0854879,"(40.6216532, -74.0854879)",VANDUZER STREET                 ,MAXIE COURT                     ,,0,0,0,0,0,0,0,0,Unspecified,Unspecified,,,,287047,PASSENGER VEHICLE,PASSENGER VEHICLE,,,
02/06/2013,10:00,STATEN ISLAND,10314,40.6130779,-74.122557,"(40.6130779, -74.122557)",VICTORY BOULEVARD               ,MANOR ROAD                      ,,0,0,0,0,0,0,0,0,Unspecified,Unspecified,,,,287048,PASSENGER VEHICLE,PASSENGER VEHICLE,,,
02/06/2013,12:37,STATEN ISLAND,10302,40.6319531,-74.1466618,"(40.6319531, -74.1466618)",HOOKER PLACE                    ,MORNINGSTAR ROAD                ,,0,0,0,0,0,0,0,0,Unspecified,Unspecified,,,,287050,PASSENGER VEHICLE,UNKNOWN,,,
02/02/2013,21:50,STATEN ISLAND,10304,40.6090573,-74.0892245,"(40.6090573, -74.0892245)",NARROWS ROAD NORTH              ,RHINE AVENUE                    ,,1,0,1,0,0,0,0,0,Unspecified,,,,,287051,PASSENGER VEHICLE,,,,
02/06/2013,21:30,STATEN ISLAND,10310,40.6446384,-74.1108172,"(40.6446384, -74.1108172)",DAVIS AVENUE                    ,RICHMOND TERRACE                ,,0,0,0,0,0,0,0,0,Unspecified,Unspecified,,,,287053,SPORT UTILITY / STATION WAGON,UNKNOWN,,,
02/06/2013,9:00,STATEN ISLAND,10303,40.6371447,-74.1601631,"(40.6371447, -74.1601631)",RICHMOND TERRACE                ,HARBOR ROAD                     ,,0,0,0,0,0,0,0,0,Unspecified,,,,,287054,SPORT UTILITY / STATION WAGON,,,,
02/06/2013,16:25,STATEN ISLAND,10310,40.6373579,-74.1094216,"(40.6373579, -74.1094216)",DAVIS AVENUE                    ,ALBAN STREET                    ,,0,0,0,0,0,0,0,0,Unspecified,Unspecified,,,,287055,PASSENGER VEHICLE,PASSENGER VEHICLE,,,
02/06/2013,17:45,STATEN ISLAND,10301,40.612609,-74.0926978,"(40.612609, -74.0926978)",STARLIGHT ROAD                  ,CAMPUS ROAD                     ,,0,0,0,0,0,0,0,0,Unspecified,Unspecified,,,,287056,PASSENGER VEHICLE,PASSENGER VEHICLE,,,
02/06/2013,17:30,STATEN ISLAND,10310,40.6298358,-74.116348,"(40.6298358, -74.116348)",MYRTLE AVENUE                   ,BROADWAY                        ,,0,0,0,0,0,0,0,0,Unspecified,Unspecified,,,,287057,PASSENGER VEHICLE,PASSENGER VEHICLE,,,
02/06/2013,17:01,STATEN ISLAND,10303,40.6215643,-74.1684829,"(40.6215643, -74.1684829)",GOETHALS ROAD NORTH             ,SOUTH AVENUE                    ,,0,0,0,0,0,0,0,0,Unspecified,Unspecified,,,,287058,PASSENGER VEHICLE,PASSENGER VEHICLE,,,
01/06/2013,16:07,STATEN ISLAND,10314,40.6113053,-74.1412032,"(40.6113053, -74.1412032)",WOOLLEY AVENUE                  ,VICTORY BOULEVARD               ,,0,0,0,0,0,0,0,0,Unspecified,Unspecified,,,,287059,SPORT UTILITY / STATION WAGON,PASSENGER VEHICLE,,,
02/06/2013,9:10,STATEN ISLAND,10314,40.6113053,-74.1412032,"(40.6113053, -74.1412032)",VICTORY BOULEVARD               ,WOOLLEY AVENUE                  ,,0,0,0,0,0,0,0,0,Unspecified,Unspecified,,,,287060,PASSENGER VEHICLE,PASSENGER VEHICLE,,,
02/06/2013,9:10,STATEN ISLAND,10301,40.645475,-74.0928623,"(40.645475, -74.0928623)",RICHMOND TERRACE                ,FRANKLIN AVENUE                 ,,1,0,0,0,0,0,1,0,Unspecified,Unspecified,Unspecified,Unspecified,,287061,PASSENGER VEHICLE,PASSENGER VEHICLE,PASSENGER VEHICLE,PASSENGER VEHICLE,
02/06/2013,17:30,STATEN ISLAND,10303,40.6273669,-74.1665593,"(40.6273669, -74.1665593)",FOREST AVENUE                   ,SOUTH AVENUE                    ,,0,0,0,0,0,0,0,0,Unspecified,Unspecified,,,,287062,PASSENGER VEHICLE,UNKNOWN,,,
02/04/2013,20:25,STATEN ISLAND,10301,40.6139852,-74.1012756,"(40.6139852, -74.1012756)",CLOVE ROAD                      ,SUNNYSIDE TERRACE               ,,0,0,0,0,0,0,0,0,Unspecified,Unspecified,,,,287065,PASSENGER VEHICLE,PASSENGER VEHICLE,,,
02/04/2013,19:35,STATEN ISLAND,10301,40.6164151,-74.1035089,"(40.6164151, -74.1035089)",VICTORY BOULEVARD               ,CLOVE ROAD                      ,,0,0,0,0,0,0,0,0,Unspecified,Unspecified,,,,287066,PASSENGER VEHICLE,SPORT UTILITY / STATION WAGON,,,
01/31/2013,22:18,STATEN ISLAND,10302,40.6316761,-74.1304704,"(40.6316761, -74.1304704)",JEWETT AVENUE                   ,CATHERINE COURT                 ,,0,0,0,0,0,0,0,0,Unspecified,Unspecified,,,,287067,PASSENGER VEHICLE,PASSENGER VEHICLE,,,
02/07/2013,9:40,STATEN ISLAND,10302,40.6402647,-74.1351317,"(40.6402647, -74.1351317)",FABER STREET                    ,RICHMOND TERRACE                ,,0,0,0,0,0,0,0,0,Unspecified,Unspecified,,,,287068,PASSENGER VEHICLE,BUS,,,
02/07/2013,19:00,STATEN ISLAND,10302,40.6263307,-74.1316307,"(40.6263307, -74.1316307)",,,P/L 1252 FOREST AVENUE                  ,0,0,0,0,0,0,0,0,Unspecified,Unspecified,,,,287070,PASSENGER VEHICLE,PASSENGER VEHICLE,,,
02/07/2013,9:36,STATEN ISLAND,10310,40.6440993,-74.1119802,"(40.6440993, -74.1119802)",RICHMOND TERRACE                ,PELTON AVENUE                   ,,0,0,0,0,0,0,0,0,View Obstructed/Limited,Unspecified,,,,287071,PASSENGER VEHICLE,PASSENGER VEHICLE,,,
02/07/2013,12:08,STATEN ISLAND,10303,40.6265301,-74.1605015,"(40.6265301, -74.1605015)",HARBOR ROAD                     ,FOREST AVENUE                   ,,0,0,0,0,0,0,0,0,Other Vehicular,Unspecified,,,,287072,PASSENGER VEHICLE,VAN,,,
02/08/2013,13:00,STATEN ISLAND,10301,40.6373213,-74.0805501,"(40.6373213, -74.0805501)",VICTORY BOULEVARD               ,BROOK STREET                    ,,0,0,0,0,0,0,0,0,Unspecified,Unspecified,,,,287073,PASSENGER VEHICLE,UNKNOWN,,,
02/08/2013,10:47,STATEN ISLAND,10312,40.5424056,-74.2000172,"(40.5424056, -74.2000172)",,,P/L 11 ELLSWORTH AVENUE                 ,0,0,0,0,0,0,0,0,Unspecified,Unspecified,,,,287074,SPORT UTILITY / STATION WAGON,UNKNOWN,,,
02/08/2013,11:45,STATEN ISLAND,10303,40.6238935,-74.167408,"(40.6238935, -74.167408)",SOUTH AVENUE                    ,AMADOR STREET                   ,,0,0,0,0,0,0,0,0,Unspecified,Unspecified,,,,287075,SPORT UTILITY / STATION WAGON,SPORT UTILITY / STATION WAGON,,,
02/08/2013,13:30,STATEN ISLAND,10314,40.6124219,-74.1324425,"(40.6124219, -74.1324425)",,,P/L 2070 VICTORY BOULEVARD              ,0,0,0,0,0,0,0,0,Unspecified,Unspecified,,,,287077,PASSENGER VEHICLE,PASSENGER VEHICLE,,,
